[{"aka": "", "asn": 18450, "created": "2016-05-26 12:03:47.823949", "id": "4729", "info_ipv6": 1, "info_multicast": 1, "info_prefixes4": 20, "info_prefixes6": 1, "info_ratio": "Mostly Outbound", "info_scope": "Regional", "info_traffic": "20-50 Gbps", "info_type": "content", "info_unicast": 1, "irr_as_set": "RADB:AS-WEBNX", "looking_glass": "", "name": "WebNX", "notes": "", "notes_private": "", "org_id": 7491, "policy_contracts": "Not Required", "policy_general": "Open", "policy_locations": "Not Required", "policy_ratio": 0, "policy_url": "", "route_server": "", "status": "ok", "updated": "2016-05-26 12:03:47.823970", "version": 0, "website": "http://WebNX.com", "pop_list": [{"city": "Salt Lake City", "country": "US", "state": "UT", "org_name": "c7 Data Centers, Inc.", "isp_id_in_peering_db": 1342, "location": [40.77, -111.89], "port_capacity": 1000, "isp_type_in_peering_db": "fac", "internet_penetration_percentage": 0.877}, {"city": "Salt Lake City", "country": "US", "state": "UT", "org_name": "Level 3 Communications, LLC", "isp_id_in_peering_db": 854, "location": [40.76, -111.96], "port_capacity": 1000, "isp_type_in_peering_db": "fac", "internet_penetration_percentage": 0.877}, {"city": "Los Angeles", "country": "US", "state": "CA", "org_name": "CoreSite", "isp_id_in_peering_db": 19, "location": [34.05, -118.26], "port_capacity": 12000, "isp_type_in_peering_db": "fac", "internet_penetration_percentage": 0.838}], "prefixes": 201, "total_prefixes_in_globe": 8388478, "address_space": 214528, "total_addresses_in_globe": 22264797636, "neighbor": 40}, {"aka": "Cologix/NAC/Net Access Corporation", "asn": 8001, "created": "2016-05-26 12:02:30.828552", "id": "33", "info_ipv6": 1, "info_multicast": 0, "info_prefixes4": 500, "info_prefixes6": 25, "info_ratio": "Mostly Outbound", "info_scope": "North America", "info_traffic": "10-20Gbps", "info_type": "transit", "info_unicast": 1, "irr_as_set": "AS-NETACCESS", "looking_glass": "", "name": "Net Access Corp", "notes": "", "notes_private": "", "org_id": 82, "policy_contracts": "Not Required", "policy_general": "Selective", "policy_locations": "Preferred", "policy_ratio": 0, "policy_url": "", "route_server": "", "status": "ok", "updated": "2016-05-26 12:02:30.828573", "version": 0, "website": "", "pop_list": [{"city": "Parsippany", "country": "US", "state": "NJ", "org_name": "Cologix", "isp_id_in_peering_db": 2509, "location": [40.86, -74.42], "port_capacity": 1000, "isp_type_in_peering_db": "fac", "internet_penetration_percentage": 0.8240000000000001}, {"city": "Cedar Knolls", "country": "US", "state": "NJ", "org_name": "Cologix", "isp_id_in_peering_db": 2508, "location": [40.83, -74.45], "port_capacity": 1000, "isp_type_in_peering_db": "fac", "internet_penetration_percentage": 0.8240000000000001}, {"city": "Newark", "country": "US", "state": "NJ", "org_name": "Tishman Real Estate Services", "isp_id_in_peering_db": 350, "location": [40.74, -74.17], "port_capacity": 2000, "isp_type_in_peering_db": "fac", "internet_penetration_percentage": 0.8240000000000001}, {"city": "New York", "country": "US", "state": "NY", "org_name": "Equinix", "isp_id_in_peering_db": 38, "location": [40.74, -74.0], "port_capacity": 2000, "isp_type_in_peering_db": "fac", "internet_penetration_percentage": 0.802}, {"city": "Ashburn", "country": "US", "state": "VA", "org_name": "Equinix", "isp_id_in_peering_db": 1, "location": [39.02, -77.46], "port_capacity": 2000, "isp_type_in_peering_db": "ix", "internet_penetration_percentage": 0.852}, {"city": "New York", "country": "US", "state": "NY", "org_name": "DE-CIX Management GmbH", "isp_id_in_peering_db": 804, "location": [40.72, -74.01], "port_capacity": 22000, "isp_type_in_peering_db": "ix", "internet_penetration_percentage": 0.802}, {"city": "Dallas", "country": "US", "state": "TX", "org_name": "Cologix DAL2", "isp_id_in_peering_db": 2376, "location": [32.8, -96.82], "port_capacity": 2000, "isp_type_in_peering_db": "fac", "internet_penetration_percentage": 0.8170000000000001}, {"city": "Parsippany", "country": "US", "state": "NJ", "org_name": "Cologix", "isp_id_in_peering_db": 2507, "location": [40.84, -74.46], "port_capacity": 1000, "isp_type_in_peering_db": "fac", "internet_penetration_percentage": 0.8240000000000001}], "prefixes": 303, "total_prefixes_in_globe": 8388478, "address_space": 572672, "total_addresses_in_globe": 22264797636, "neighbor": 38}, {"aka": "", "asn": 62713, "created": "2016-05-26 12:04:08.278486", "id": "5903", "info_ipv6": 0, "info_multicast": 0, "info_prefixes4": 6, "info_prefixes6": 0, "info_ratio": "Mostly Outbound", "info_scope": "Global", "info_traffic": "10-20Gbps", "info_type": "content", "info_unicast": 1, "irr_as_set": "", "looking_glass": "", "name": "PubMatic", "notes": "http://www.pubmatic.com/about-us.php", "notes_private": "", "org_id": 8221, "policy_contracts": "Not Required", "policy_general": "Open", "policy_locations": "Not Required", "policy_ratio": 0, "policy_url": "", "route_server": "", "status": "ok", "updated": "2016-05-26 12:04:08.278507", "version": 0, "website": "http://www.pubmatic.com", "pop_list": [{"city": "New York", "country": "US", "state": "NY", "org_name": "Telx New York", "isp_id_in_peering_db": 325, "location": [40.72, -74.01], "port_capacity": 10000, "isp_type_in_peering_db": "ix", "internet_penetration_percentage": 0.802}, {"city": "North Bergen", "country": "US", "state": "NJ", "org_name": "Equinix", "isp_id_in_peering_db": 542, "location": [40.8, -74.03], "port_capacity": 1000, "isp_type_in_peering_db": "fac", "internet_penetration_percentage": 0.8240000000000001}, {"city": "San Jose", "country": "US", "state": "CA", "org_name": "Equinix", "isp_id_in_peering_db": 436, "location": [37.39, -121.89], "port_capacity": 1000, "isp_type_in_peering_db": "fac", "internet_penetration_percentage": 0.838}, {"city": "San Francisco", "country": "US", "state": "CA", "org_name": "Telx", "isp_id_in_peering_db": 447, "location": [32.54, -83.72], "port_capacity": 1000, "isp_type_in_peering_db": "fac", "internet_penetration_percentage": 0.838}, {"city": "New York", "country": "US", "state": "NY", "org_name": "Telx", "isp_id_in_peering_db": 16, "location": [40.74, -74.0], "port_capacity": 1000, "isp_type_in_peering_db": "fac", "internet_penetration_percentage": 0.802}], "prefixes": 12, "total_prefixes_in_globe": 8388478, "address_space": 4096, "total_addresses_in_globe": 22264797636, "neighbor": 95}, {"aka": "", "asn": 20115, "created": "2016-05-26 12:03:03.624655", "id": "2144", "info_ipv6": 1, "info_multicast": 0, "info_prefixes4": 2800, "info_prefixes6": 130, "info_ratio": "Balanced", "info_scope": "North America", "info_traffic": "", "info_type": "access", "info_unicast": 1, "irr_as_set": "", "looking_glass": "", "name": "Charter Communications", "notes": "", "notes_private": "", "org_id": 1971, "policy_contracts": "Not Required", "policy_general": "Selective", "policy_locations": "Preferred", "policy_ratio": 0, "policy_url": "", "route_server": "", "status": "ok", "updated": "2016-05-26 12:03:03.624676", "version": 0, "website": "http://www.charter.com", "pop_list": [{"city": "Atlanta", "country": "US", "state": "GA", "org_name": "Telx Atlanta", "isp_id_in_peering_db": 22, "location": [33.76, -84.39], "port_capacity": 21000, "isp_type_in_peering_db": "ix", "internet_penetration_percentage": 0.847}, {"city": "Ashburn", "country": "US", "state": "VA", "org_name": "Equinix", "isp_id_in_peering_db": 1, "location": [39.02, -77.46], "port_capacity": 31000, "isp_type_in_peering_db": "ix", "internet_penetration_percentage": 0.852}, {"city": "Chicago", "country": "US", "state": "IL", "org_name": "Equinix", "isp_id_in_peering_db": 2, "location": [41.85, -87.62], "port_capacity": 31000, "isp_type_in_peering_db": "ix", "internet_penetration_percentage": 0.865}, {"city": "Dallas", "country": "US", "state": "TX", "org_name": "Equinix", "isp_id_in_peering_db": 4, "location": [32.8, -96.82], "port_capacity": 21000, "isp_type_in_peering_db": "fac", "internet_penetration_percentage": 0.8170000000000001}, {"city": "Los Angeles", "country": "US", "state": "CA", "org_name": "Equinix", "isp_id_in_peering_db": 4, "location": [34.05, -118.26], "port_capacity": 21000, "isp_type_in_peering_db": "ix", "internet_penetration_percentage": 0.838}, {"city": "San Jose", "country": "US", "state": "CA", "org_name": "Equinix", "isp_id_in_peering_db": 5, "location": [37.24, -121.78], "port_capacity": 11000, "isp_type_in_peering_db": "ix", "internet_penetration_percentage": 0.838}, {"city": "Minneapolis", "country": "US", "state": "MN", "org_name": "Cologix", "isp_id_in_peering_db": 803, "location": [44.97, -93.25], "port_capacity": 11000, "isp_type_in_peering_db": "fac", "internet_penetration_percentage": 0.856}, {"city": "Seattle", "country": "US", "state": "WA", "org_name": "Equinix", "isp_id_in_peering_db": 11, "location": [47.61, -122.34], "port_capacity": 21000, "isp_type_in_peering_db": "ix", "internet_penetration_percentage": 0.885}], "prefixes": 4849, "total_prefixes_in_globe": 8388478, "address_space": 16330024, "total_addresses_in_globe": 22264797636, "neighbor": 433}, {"aka": "", "asn": 11071, "created": "2016-05-26 12:03:16.467929", "id": "2830", "info_ipv6": 1, "info_multicast": 0, "info_prefixes4": 50, "info_prefixes6": 3, "info_ratio": "Mostly Inbound", "info_scope": "Regional", "info_traffic": "5-10Gbps", "info_type": "transit", "info_unicast": 1, "irr_as_set": "AS-IWNET", "looking_glass": "http://lg.infowest.net/lg/", "name": "InfoWest, Inc", "notes": "", "notes_private": "", "org_id": 2357, "policy_contracts": "Not Required", "policy_general": "Open", "policy_locations": "Not Required", "policy_ratio": 0, "policy_url": "http://www.infowest.com/peering/", "route_server": "", "status": "ok", "updated": "2016-05-26 12:03:16.467948", "version": 0, "website": "http://www.infowest.com", "pop_list": [{"city": "Salt Lake City", "country": "US", "state": "UT", "org_name": "Level 3 Communications, LLC", "isp_id_in_peering_db": 854, "location": [40.76, -111.96], "port_capacity": 1000, "isp_type_in_peering_db": "fac", "internet_penetration_percentage": 0.877}, {"city": "Los Angeles", "country": "US", "state": "CA", "org_name": "CoreSite", "isp_id_in_peering_db": 19, "location": [34.05, -118.26], "port_capacity": 11000, "isp_type_in_peering_db": "fac", "internet_penetration_percentage": 0.838}, {"city": "Saint George", "country": "US", "state": "UT", "org_name": "SUPRnet", "isp_id_in_peering_db": 363, "location": [37.08, -113.61], "port_capacity": 11000, "isp_type_in_peering_db": "ix", "internet_penetration_percentage": 0.877}], "prefixes": 39, "total_prefixes_in_globe": 8388478, "address_space": 62208, "total_addresses_in_globe": 22264797636, "neighbor": 40}, {"aka": "32787", "asn": 20940, "created": "2016-05-26 12:02:30.232730", "id": "2", "info_ipv6": 1, "info_multicast": 0, "info_prefixes4": 50, "info_prefixes6": 20, "info_ratio": "Heavy Outbound", "info_scope": "Global", "info_traffic": "1 Tbps+", "info_type": "content", "info_unicast": 1, "irr_as_set": "AS-AKAMAI", "looking_glass": "", "name": "Akamai Technologies", "notes": "AS 32787 has been acquired by AS 20940. Routing policies will remain discrete. Requests to peering@akamai.com are suitable for both.", "notes_private": "", "org_id": 14, "policy_contracts": "Not Required", "policy_general": "Open", "policy_locations": "Not Required", "policy_ratio": 0, "policy_url": "", "route_server": "", "status": "ok", "updated": "2016-05-26 12:02:30.232750", "version": 0, "website": "http://www.akamai.com/", "pop_list": [{"city": "Montgomery", "country": "US", "state": "AL", "org_name": "Montgomery Internet Exchange", "isp_id_in_peering_db": 1212, "location": [32.38, -86.3], "port_capacity": 10000, "isp_type_in_peering_db": "ix", "internet_penetration_percentage": 0.787}, {"city": "San Jose", "country": "US", "state": "CA", "org_name": "Megaport", "isp_id_in_peering_db": 1176, "location": [37.24, -121.78], "port_capacity": 11000, "isp_type_in_peering_db": "ix", "internet_penetration_percentage": 0.838}, {"city": "New York", "country": "US", "state": "NY", "org_name": "Telehouse America", "isp_id_in_peering_db": 3, "location": [40.76, -73.93], "port_capacity": 1000, "isp_type_in_peering_db": "fac", "internet_penetration_percentage": 0.802}, {"city": "San Jose", "country": "US", "state": "CA", "org_name": "CoreSite", "isp_id_in_peering_db": 20, "location": [37.33, -121.89], "port_capacity": 1000, "isp_type_in_peering_db": "fac", "internet_penetration_percentage": 0.838}, {"city": "Indianapolis", "country": "US", "state": "IN", "org_name": "MidWest Internet Exchange", "isp_id_in_peering_db": 986, "location": [39.76, -86.17], "port_capacity": 10000, "isp_type_in_peering_db": "ix", "internet_penetration_percentage": 0.815}, {"city": "Palo Alto", "country": "US", "state": "CA", "org_name": "Equinix", "isp_id_in_peering_db": 7, "location": [37.45, -122.16], "port_capacity": 80000, "isp_type_in_peering_db": "ix", "internet_penetration_percentage": 0.838}, {"city": "Portland", "country": "US", "state": "OR", "org_name": "NWAX", "isp_id_in_peering_db": 165, "location": [45.52, -122.68], "port_capacity": 20000, "isp_type_in_peering_db": "ix", "internet_penetration_percentage": 0.8740000000000001}, {"city": "Chicago", "country": "US", "state": "IL", "org_name": "United IX", "isp_id_in_peering_db": 239, "location": [41.85, -87.62], "port_capacity": 41000, "isp_type_in_peering_db": "ix", "internet_penetration_percentage": 0.865}, {"city": "Ashland", "country": "US", "state": "VA", "org_name": "RVA-IX", "isp_id_in_peering_db": 1002, "location": [37.7, -77.44], "port_capacity": 10000, "isp_type_in_peering_db": "ix", "internet_penetration_percentage": 0.852}, {"city": "San Francisco", "country": "US", "state": "CA", "org_name": "Amsterdam Internet Exchange BV", "isp_id_in_peering_db": 935, "location": [37.79, -122.39], "port_capacity": 10000, "isp_type_in_peering_db": "ix", "internet_penetration_percentage": 0.838}, {"city": "Tampa", "country": "US", "state": "FL", "org_name": "TPAIX", "isp_id_in_peering_db": 833, "location": [27.95, -82.46], "port_capacity": 10000, "isp_type_in_peering_db": "ix", "internet_penetration_percentage": 0.8420000000000001}, {"city": "Phoenix", "country": "US", "state": "AZ", "org_name": "Phoenix IX", "isp_id_in_peering_db": 662, "location": [33.42, -112.01], "port_capacity": 10000, "isp_type_in_peering_db": "ix", "internet_penetration_percentage": 0.8390000000000001}, {"city": "New York", "country": "exclude", "state": "NY", "org_name": "Amsterdam Internet Exchange BV", "isp_id_in_peering_db": 806, "location": [40.71, -74.0], "port_capacity": 10000, "isp_type_in_peering_db": "ix", "internet_penetration_percentage": 0.802}, {"city": "Newark", "country": "US", "state": "NJ", "org_name": "Equinix", "isp_id_in_peering_db": 9, "location": [40.74, -74.17], "port_capacity": 1000, "isp_type_in_peering_db": "fac", "internet_penetration_percentage": 0.8240000000000001}, {"city": "New York", "country": "US", "state": "NY", "org_name": "DE-CIX Management GmbH", "isp_id_in_peering_db": 804, "location": [40.72, -74.01], "port_capacity": 40000, "isp_type_in_peering_db": "ix", "internet_penetration_percentage": 0.802}, {"city": "Somerset", "country": "US", "state": "NJ", "org_name": "Sentinel Data Centers", "isp_id_in_peering_db": 2180, "location": [40.54, -74.55], "port_capacity": 1000, "isp_type_in_peering_db": "fac", "internet_penetration_percentage": 0.8240000000000001}, {"city": "Miami", "country": "US", "state": "FL", "org_name": "Verizon", "isp_id_in_peering_db": 15, "location": [25.78, -80.19], "port_capacity": 51000, "isp_type_in_peering_db": "fac", "internet_penetration_percentage": 0.8420000000000001}, {"city": "Omaha", "country": "US", "state": "NE", "org_name": "OmahaIX", "isp_id_in_peering_db": 809, "location": [41.26, -95.94], "port_capacity": 10000, "isp_type_in_peering_db": "ix", "internet_penetration_percentage": 0.831}, {"city": "Los Angeles", "country": "US", "state": "CA", "org_name": "Equinix", "isp_id_in_peering_db": 8, "location": [34.05, -118.26], "port_capacity": 52000, "isp_type_in_peering_db": "fac", "internet_penetration_percentage": 0.838}, {"city": "Boston", "country": "US", "state": "MA", "org_name": "Boston Internet Exchange", "isp_id_in_peering_db": 565, "location": [42.35, -71.06], "port_capacity": 20000, "isp_type_in_peering_db": "ix", "internet_penetration_percentage": 0.784}, {"city": " Las Vegas", "country": "US", "state": "NV", "org_name": "EdgeConneX", "isp_id_in_peering_db": 1918, "location": [36.07, -115.13], "port_capacity": 1000, "isp_type_in_peering_db": "fac", "internet_penetration_percentage": 0.875}, {"city": "New York", "country": "US", "state": "NY", "org_name": "Equinix", "isp_id_in_peering_db": 38, "location": [40.74, -74.0], "port_capacity": 2000, "isp_type_in_peering_db": "fac", "internet_penetration_percentage": 0.802}, {"city": "Katy", "country": "US", "state": "TX", "org_name": "EdgeConneX", "isp_id_in_peering_db": 1910, "location": [29.79, -95.75], "port_capacity": 1000, "isp_type_in_peering_db": "fac", "internet_penetration_percentage": 0.8170000000000001}, {"city": "Tempe", "country": "US", "state": "AZ", "org_name": "EdgeConneX", "isp_id_in_peering_db": 1917, "location": [33.4, -111.97], "port_capacity": 1000, "isp_type_in_peering_db": "fac", "internet_penetration_percentage": 0.8390000000000001}, {"city": "Jacksonville", "country": "US", "state": "FL", "org_name": "JXIX", "isp_id_in_peering_db": 563, "location": [34.78, -84.96], "port_capacity": 10000, "isp_type_in_peering_db": "ix", "internet_penetration_percentage": 0.8420000000000001}, {"city": "Piscataway", "country": "US", "state": "NJ", "org_name": "Dupont Fabros Technology", "isp_id_in_peering_db": 1177, "location": [40.56, -74.48], "port_capacity": 1000, "isp_type_in_peering_db": "fac", "internet_penetration_percentage": 0.8240000000000001}, {"city": "Ashburn", "country": "US", "state": "VA", "org_name": "Equinix", "isp_id_in_peering_db": 1, "location": [39.02, -77.46], "port_capacity": 171000, "isp_type_in_peering_db": "ix", "internet_penetration_percentage": 0.852}, {"city": "Minneapolis", "country": "US", "state": "MN", "org_name": "MICE", "isp_id_in_peering_db": 446, "location": [44.97, -93.25], "port_capacity": 10000, "isp_type_in_peering_db": "ix", "internet_penetration_percentage": 0.856}, {"city": "Seattle", "country": "US", "state": "WA", "org_name": "Equinix", "isp_id_in_peering_db": 86, "location": [47.61, -122.34], "port_capacity": 92000, "isp_type_in_peering_db": "fac", "internet_penetration_percentage": 0.885}, {"city": "Dallas", "country": "US", "state": "TX", "org_name": "Equinix", "isp_id_in_peering_db": 69, "location": [32.8, -96.82], "port_capacity": 12000, "isp_type_in_peering_db": "fac", "internet_penetration_percentage": 0.8170000000000001}, {"city": "Atlanta", "country": "US", "state": "GA", "org_name": "Equinix", "isp_id_in_peering_db": 11, "location": [33.76, -84.39], "port_capacity": 51000, "isp_type_in_peering_db": "fac", "internet_penetration_percentage": 0.847}], "prefixes": 7641, "total_prefixes_in_globe": 8388478, "address_space": 13722448, "total_addresses_in_globe": 22264797636, "neighbor": 518}, {"aka": "", "asn": 13427, "created": "2016-05-26 12:04:39.835027", "id": "7885", "info_ipv6": 1, "info_multicast": 0, "info_prefixes4": 10, "info_prefixes6": 1, "info_ratio": "Heavy Inbound", "info_scope": "Regional", "info_traffic": "1-5Gbps", "info_type": "access", "info_unicast": 1, "irr_as_set": "AS-SOFTCOM", "looking_glass": "", "name": "Softcom Internet Communications, Inc.", "notes": "", "notes_private": "", "org_id": 11838, "policy_contracts": "Not Required", "policy_general": "Open", "policy_locations": "Not Required", "policy_ratio": 0, "policy_url": "", "route_server": "", "status": "ok", "updated": "2016-05-26 12:04:39.835048", "version": 0, "website": "https://www.softcom.net", "pop_list": [{"city": "San Jose", "country": "US", "state": "CA", "org_name": "CoreSite", "isp_id_in_peering_db": 338, "location": [37.33, -121.89], "port_capacity": 1000, "isp_type_in_peering_db": "ix", "internet_penetration_percentage": 0.838}, {"city": "Fremont", "country": "US", "state": "CA", "org_name": "Hurricane Electric", "isp_id_in_peering_db": 547, "location": [37.47, -121.92], "port_capacity": 1000, "isp_type_in_peering_db": "fac", "internet_penetration_percentage": 0.838}, {"city": "Los Angeles", "country": "US", "state": "CA", "org_name": "CoreSite", "isp_id_in_peering_db": 142, "location": [34.05, -118.26], "port_capacity": 1000, "isp_type_in_peering_db": "ix", "internet_penetration_percentage": 0.838}, {"city": "San Francisco", "country": "US", "state": "CA", "org_name": "SFMIX", "isp_id_in_peering_db": 155, "location": [37.79, -122.39], "port_capacity": 2000, "isp_type_in_peering_db": "ix", "internet_penetration_percentage": 0.838}], "prefixes": 6, "total_prefixes_in_globe": 8388478, "address_space": 6144, "total_addresses_in_globe": 22264797636, "neighbor": 18}, {"aka": "", "asn": 40428, "created": "2016-05-26 12:02:50.970562", "id": "1407", "info_ipv6": 1, "info_multicast": 0, "info_prefixes4": 16, "info_prefixes6": 1, "info_ratio": "Heavy Outbound", "info_scope": "North America", "info_traffic": "200-300 Gbps", "info_type": "content", "info_unicast": 1, "irr_as_set": "rs-pandora", "looking_glass": "", "name": "Pandora Media, Inc", "notes": "We are currently located at the\r\nEquinix Ashburn, Equinix Chicago and Equinix San Jose exchanges.", "notes_private": "", "org_id": 1513, "policy_contracts": "Not Required", "policy_general": "Selective", "policy_locations": "Not Required", "policy_ratio": 0, "policy_url": "", "route_server": "", "status": "ok", "updated": "2016-05-26 12:02:50.970582", "version": 0, "website": "http://www.pandora.com", "pop_list": [{"city": "San Jose", "country": "US", "state": "CA", "org_name": "Equinix", "isp_id_in_peering_db": 436, "location": [37.39, -121.89], "port_capacity": 1000, "isp_type_in_peering_db": "fac", "internet_penetration_percentage": 0.838}, {"city": "Ashburn", "country": "US", "state": "VA", "org_name": "Equinix", "isp_id_in_peering_db": 1, "location": [39.02, -77.46], "port_capacity": 31000, "isp_type_in_peering_db": "fac", "internet_penetration_percentage": 0.852}, {"city": "San Jose", "country": "US", "state": "CA", "org_name": "Equinix", "isp_id_in_peering_db": 6, "location": [37.24, -121.78], "port_capacity": 31000, "isp_type_in_peering_db": "fac", "internet_penetration_percentage": 0.838}, {"city": "Chicago", "country": "US", "state": "IL", "org_name": "Equinix", "isp_id_in_peering_db": 7, "location": [41.85, -87.62], "port_capacity": 31000, "isp_type_in_peering_db": "fac", "internet_penetration_percentage": 0.865}], "prefixes": 13, "total_prefixes_in_globe": 8388478, "address_space": 2560, "total_addresses_in_globe": 22264797636, "neighbor": 16}, {"aka": "PlayStation Now", "asn": 33353, "created": "2016-05-26 12:03:24.468497", "id": "3347", "info_ipv6": 1, "info_multicast": 0, "info_prefixes4": 50, "info_prefixes6": 3, "info_ratio": "Heavy Outbound", "info_scope": "Global", "info_traffic": "", "info_type": "content", "info_unicast": 1, "irr_as_set": "AS-GAIKAI", "looking_glass": "", "name": "Gaikai, Inc (PlayStation Now)", "notes": "We recommend that you set your max-prefix to 1,000.\r\n\r\nIf we have traffic to you, we will peer with you. Additionally we peer with Route Servers at any IX we connect to.", "notes_private": "", "org_id": 9267, "policy_contracts": "Not Required", "policy_general": "Selective", "policy_locations": "Not Required", "policy_ratio": 0, "policy_url": "", "route_server": "", "status": "ok", "updated": "2016-05-26 12:03:24.468518", "version": 0, "website": "http://www.gaikai.com", "pop_list": [{"city": "Seattle", "country": "US", "state": "WA", "org_name": "Equinix", "isp_id_in_peering_db": 86, "location": [47.61, -122.34], "port_capacity": 11000, "isp_type_in_peering_db": "fac", "internet_penetration_percentage": 0.885}, {"city": "Ashburn", "country": "US", "state": "VA", "org_name": "Equinix", "isp_id_in_peering_db": 1, "location": [39.02, -77.46], "port_capacity": 11000, "isp_type_in_peering_db": "ix", "internet_penetration_percentage": 0.852}, {"city": "Chicago", "country": "US", "state": "IL", "org_name": "Equinix", "isp_id_in_peering_db": 2, "location": [41.85, -87.62], "port_capacity": 11000, "isp_type_in_peering_db": "ix", "internet_penetration_percentage": 0.865}, {"city": "San Jose", "country": "US", "state": "CA", "org_name": "CoreSite", "isp_id_in_peering_db": 20, "location": [37.33, -121.89], "port_capacity": 11000, "isp_type_in_peering_db": "fac", "internet_penetration_percentage": 0.838}, {"city": "Dallas", "country": "US", "state": "TX", "org_name": "Equinix", "isp_id_in_peering_db": 3, "location": [32.8, -96.82], "port_capacity": 11000, "isp_type_in_peering_db": "ix", "internet_penetration_percentage": 0.8170000000000001}, {"city": "Denver", "country": "US", "state": "CO", "org_name": "CoreSite", "isp_id_in_peering_db": 389, "location": [39.75, -105.0], "port_capacity": 1000, "isp_type_in_peering_db": "fac", "internet_penetration_percentage": 0.795}, {"city": "Los Angeles", "country": "US", "state": "CA", "org_name": "Equinix", "isp_id_in_peering_db": 4, "location": [34.05, -118.26], "port_capacity": 22000, "isp_type_in_peering_db": "ix", "internet_penetration_percentage": 0.838}, {"city": "Chicago", "country": "US", "state": "IL", "org_name": "CoreSite", "isp_id_in_peering_db": 440, "location": [41.88, -87.63], "port_capacity": 11000, "isp_type_in_peering_db": "fac", "internet_penetration_percentage": 0.865}, {"city": "San Jose", "country": "US", "state": "CA", "org_name": "Equinix", "isp_id_in_peering_db": 5, "location": [37.24, -121.78], "port_capacity": 11000, "isp_type_in_peering_db": "ix", "internet_penetration_percentage": 0.838}, {"city": "Reston", "country": "US", "state": "VA", "org_name": "CoreSite", "isp_id_in_peering_db": 668, "location": [38.95, -77.36], "port_capacity": 11000, "isp_type_in_peering_db": "fac", "internet_penetration_percentage": 0.852}, {"city": "Atlanta", "country": "US", "state": "GA", "org_name": "Telx Atlanta", "isp_id_in_peering_db": 22, "location": [33.76, -84.39], "port_capacity": 12000, "isp_type_in_peering_db": "ix", "internet_penetration_percentage": 0.847}, {"city": "New York", "country": "US", "state": "NY", "org_name": "CoreSite", "isp_id_in_peering_db": 670, "location": [40.72, -74.0], "port_capacity": 11000, "isp_type_in_peering_db": "fac", "internet_penetration_percentage": 0.802}, {"city": "New York", "country": "US", "state": "NY", "org_name": "DE-CIX Management GmbH", "isp_id_in_peering_db": 804, "location": [40.72, -74.01], "port_capacity": 10000, "isp_type_in_peering_db": "ix", "internet_penetration_percentage": 0.802}, {"city": "Atlanta", "country": "US", "state": "GA", "org_name": "Quality Technology Services", "isp_id_in_peering_db": 581, "location": [33.78, -84.42], "port_capacity": 1000, "isp_type_in_peering_db": "fac", "internet_penetration_percentage": 0.847}, {"city": "Newark", "country": "US", "state": "NJ", "org_name": "Tishman Real Estate Services", "isp_id_in_peering_db": 350, "location": [40.74, -74.17], "port_capacity": 1000, "isp_type_in_peering_db": "fac", "internet_penetration_percentage": 0.8240000000000001}], "prefixes": 114, "total_prefixes_in_globe": 8388478, "address_space": 56064, "total_addresses_in_globe": 22264797636, "neighbor": 157}, {"aka": "Arcos Cable", "asn": 23520, "created": "2016-05-26 12:02:47.772718", "id": "1185", "info_ipv6": 1, "info_multicast": 0, "info_prefixes4": 7000, "info_prefixes6": 350, "info_ratio": "Mostly Inbound", "info_scope": "Regional", "info_traffic": "50-100 Gbps", "info_type": "transit", "info_unicast": 1, "irr_as_set": "", "looking_glass": "", "name": "Columbus Networks", "notes": "looking_glass: http://Private\n", "notes_private": "", "org_id": 1377, "policy_contracts": "Not Required", "policy_general": "Selective", "policy_locations": "Not Required", "policy_ratio": 1, "policy_url": "", "route_server": "", "status": "ok", "updated": "2016-05-26 12:02:47.772739", "version": 0, "website": "http://www.columbus-networks.com", "pop_list": [{"city": "Miami", "country": "US", "state": "FL", "org_name": "NOTA", "isp_id_in_peering_db": 17, "location": [25.78, -80.19], "port_capacity": 20000, "isp_type_in_peering_db": "ix", "internet_penetration_percentage": 0.8420000000000001}, {"city": "New York", "country": "US", "state": "NY", "org_name": "Telx", "isp_id_in_peering_db": 16, "location": [40.74, -74.0], "port_capacity": 1000, "isp_type_in_peering_db": "fac", "internet_penetration_percentage": 0.802}, {"city": "New York", "country": "US", "state": "NY", "org_name": "Telx New York", "isp_id_in_peering_db": 325, "location": [40.72, -74.01], "port_capacity": 10, "isp_type_in_peering_db": "ix", "internet_penetration_percentage": 0.802}], "prefixes": 18088, "total_prefixes_in_globe": 8388478, "address_space": 33048000, "total_addresses_in_globe": 22264797636, "neighbor": 153}]