[{"status": "ok", "looking_glass": "", "route_server": "", "netixlan_updated": "2021-01-31T00:03:12Z", "info_ratio": "Mostly Outbound", "id": "4729", "policy_ratio": false, "info_unicast": true, "policy_general": "Open", "website": "http://WebNX.com", "allow_ixp_update": false, "updated": "2020-07-01T14:21:58Z", "netfac_updated": "2019-08-09T21:09:33Z", "info_traffic": "100-200Gbps", "info_multicast": true, "asn": 18450, "policy_locations": "Not Required", "name": "WebNX", "info_scope": "Regional", "notes": "", "created": "2012-04-26T02:08:46Z", "org_id": 7491, "policy_url": "", "info_never_via_route_servers": false, "poc_updated": "2017-08-08T19:46:13Z", "info_type": "content", "policy_contracts": "Not Required", "info_prefixes6": 20, "aka": "", "info_prefixes4": 300, "info_ipv6": true, "irr_as_set": "RADB::AS-WEBNX", "pop_list": [{"city": "Salt Lake City", "country": "US", "state": "UT", "org_name": "Lumen Technologies Inc", "isp_id_in_peering_db": 854, "location": [40.76, -111.96], "port_capacity": 1000, "isp_type_in_peering_db": "fac", "internet_penetration_percentage": 0.877}, {"city": "Los Angeles", "country": "US", "state": "CA", "org_name": "Thomas Properties Group", "isp_id_in_peering_db": 966, "location": [34.05, -118.26], "port_capacity": 43000, "isp_type_in_peering_db": "fac", "internet_penetration_percentage": 0.838}, {"city": "New York", "country": "US", "state": "NY", "org_name": "NYI", "isp_id_in_peering_db": 1769, "location": [40.71, -74.01], "port_capacity": 1000, "isp_type_in_peering_db": "fac", "internet_penetration_percentage": 0.802}, {"city": "Salt Lake City", "country": "US", "state": "UT", "org_name": "Flexential Corp.", "isp_id_in_peering_db": 2445, "location": [40.76, -111.95], "port_capacity": 1000, "isp_type_in_peering_db": "fac", "internet_penetration_percentage": 0.877}, {"city": "Salt Lake City", "country": "US", "state": "UT", "org_name": "DataBank, Ltd.", "isp_id_in_peering_db": 4293, "location": [40.77, -111.89], "port_capacity": 1000, "isp_type_in_peering_db": "fac", "internet_penetration_percentage": 0.877}], "prefixes": 201, "total_prefixes_in_globe": 8388478, "address_space": 214528, "total_addresses_in_globe": 22264797636, "neighbor": 40}, {"status": "ok", "looking_glass": "", "route_server": "", "netixlan_updated": "2021-01-26T00:02:41Z", "info_ratio": "Mostly Outbound", "id": "33", "policy_ratio": false, "info_unicast": true, "policy_general": "Selective", "website": "", "allow_ixp_update": false, "updated": "2016-10-11T19:04:37Z", "netfac_updated": "2016-07-21T18:16:11Z", "info_traffic": "10-20Gbps", "info_multicast": false, "asn": 8001, "policy_locations": "Preferred", "name": "Cologix", "info_scope": "North America", "notes": "", "created": "2004-07-28T00:00:00Z", "org_id": 7030, "policy_url": "", "info_never_via_route_servers": false, "poc_updated": "2016-05-25T12:44:36Z", "info_type": "transit", "policy_contracts": "Not Required", "info_prefixes6": 100, "aka": "Cologix/NAC/Net Access Corporation", "info_prefixes4": 500, "info_ipv6": true, "irr_as_set": "AS-NETACCESS", "pop_list": [{"city": "Ashburn", "country": "US", "state": "VA", "org_name": "Equinix, Inc.", "isp_id_in_peering_db": 1, "location": [39.02, -77.46], "port_capacity": 11000, "isp_type_in_peering_db": "fac", "internet_penetration_percentage": 0.852}, {"city": "Parsippany", "country": "US", "state": "NJ", "org_name": "Cologix, Inc.", "isp_id_in_peering_db": 2509, "location": [40.86, -74.42], "port_capacity": 1000, "isp_type_in_peering_db": "fac", "internet_penetration_percentage": 0.8240000000000001}, {"city": "New York", "country": "US", "state": "NY", "org_name": "Equinix, Inc.", "isp_id_in_peering_db": 38, "location": [40.74, -74.0], "port_capacity": 11000, "isp_type_in_peering_db": "fac", "internet_penetration_percentage": 0.802}, {"city": "Newark", "country": "US", "state": "NJ", "org_name": "Tishman Real Estate Services", "isp_id_in_peering_db": 350, "location": [40.74, -74.17], "port_capacity": 2000, "isp_type_in_peering_db": "fac", "internet_penetration_percentage": 0.8240000000000001}, {"city": "New York", "country": "US", "state": "NY", "org_name": "DE-CIX Management GmbH", "isp_id_in_peering_db": 804, "location": [40.72, -74.01], "port_capacity": 22000, "isp_type_in_peering_db": "ix", "internet_penetration_percentage": 0.802}, {"city": "Dallas", "country": "US", "state": "TX", "org_name": "DE-CIX Management GmbH", "isp_id_in_peering_db": 1249, "location": [32.79, -96.79], "port_capacity": 10000, "isp_type_in_peering_db": "ix", "internet_penetration_percentage": 0.8170000000000001}, {"city": "Dallas", "country": "US", "state": "TX", "org_name": "Cologix, Inc.", "isp_id_in_peering_db": 2376, "location": [32.8, -96.82], "port_capacity": 2000, "isp_type_in_peering_db": "fac", "internet_penetration_percentage": 0.8170000000000001}, {"city": "Parsippany", "country": "US", "state": "NJ", "org_name": "Cologix, Inc.", "isp_id_in_peering_db": 2507, "location": [40.84, -74.46], "port_capacity": 1000, "isp_type_in_peering_db": "fac", "internet_penetration_percentage": 0.8240000000000001}, {"city": "Cedar Knolls", "country": "US", "state": "NJ", "org_name": "Cologix, Inc.", "isp_id_in_peering_db": 2508, "location": [40.83, -74.45], "port_capacity": 1000, "isp_type_in_peering_db": "fac", "internet_penetration_percentage": 0.8240000000000001}], "prefixes": 303, "total_prefixes_in_globe": 8388478, "address_space": 572672, "total_addresses_in_globe": 22264797636, "neighbor": 38}, {"status": "ok", "looking_glass": "", "route_server": "", "netixlan_updated": "2021-01-31T00:03:00Z", "info_ratio": "Mostly Outbound", "id": "5903", "policy_ratio": false, "info_unicast": true, "policy_general": "Open", "website": "http://www.pubmatic.com", "allow_ixp_update": false, "updated": "2020-07-01T14:21:58Z", "netfac_updated": "2020-03-12T16:20:43Z", "info_traffic": "20-50Gbps", "info_multicast": false, "asn": 62713, "policy_locations": "Not Required", "name": "PubMatic", "info_scope": "Global", "notes": "http://www.pubmatic.com/about-us.php", "created": "2013-08-23T05:55:19Z", "org_id": 8221, "policy_url": "", "info_never_via_route_servers": false, "poc_updated": "2020-01-22T04:24:11Z", "info_type": "content", "policy_contracts": "Not Required", "info_prefixes6": 0, "aka": "", "info_prefixes4": 7, "info_ipv6": false, "irr_as_set": "", "pop_list": [{"city": "Ashburn", "country": "US", "state": "VA", "org_name": "Equinix, Inc.", "isp_id_in_peering_db": 1, "location": [39.02, -77.46], "port_capacity": 30000, "isp_type_in_peering_db": "ix", "internet_penetration_percentage": 0.852}, {"city": "San Jose", "country": "US", "state": "CA", "org_name": "Equinix, Inc.", "isp_id_in_peering_db": 5, "location": [37.24, -121.78], "port_capacity": 10000, "isp_type_in_peering_db": "ix", "internet_penetration_percentage": 0.838}, {"city": "Manassas", "country": "US", "state": "VA", "org_name": "Iron Mountain Data Centers", "isp_id_in_peering_db": 5373, "location": [38.78, -77.55], "port_capacity": 1000, "isp_type_in_peering_db": "fac", "internet_penetration_percentage": 0.852}, {"city": "New York", "country": "US", "state": "NY", "org_name": "Digital Realty", "isp_id_in_peering_db": 325, "location": [40.72, -74.01], "port_capacity": 20000, "isp_type_in_peering_db": "ix", "internet_penetration_percentage": 0.802}, {"city": "San Jose", "country": "US", "state": "CA", "org_name": "Equinix, Inc.", "isp_id_in_peering_db": 436, "location": [37.39, -121.89], "port_capacity": 1000, "isp_type_in_peering_db": "fac", "internet_penetration_percentage": 0.838}, {"city": "San Francisco", "country": "US", "state": "CA", "org_name": "SFMIX", "isp_id_in_peering_db": 155, "location": [37.72, -122.4], "port_capacity": 11000, "isp_type_in_peering_db": "ix", "internet_penetration_percentage": 0.838}, {"city": "Clifton", "country": "US", "state": "NJ", "org_name": "Digital Realty", "isp_id_in_peering_db": 908, "location": [40.83, -74.13], "port_capacity": 1000, "isp_type_in_peering_db": "fac", "internet_penetration_percentage": 0.8240000000000001}], "prefixes": 12, "total_prefixes_in_globe": 8388478, "address_space": 4096, "total_addresses_in_globe": 22264797636, "neighbor": 95}, {"status": "ok", "looking_glass": "", "route_server": "", "netixlan_updated": "2021-01-31T00:02:58Z", "info_ratio": "Heavy Inbound", "id": "2144", "policy_ratio": false, "info_unicast": true, "policy_general": "Selective", "website": "https://www.spectrum.com", "allow_ixp_update": false, "updated": "2021-01-15T05:01:09Z", "netfac_updated": "2019-03-01T17:10:57Z", "info_traffic": "1-5Tbps", "info_multicast": false, "asn": 20115, "policy_locations": "Preferred", "name": "Charter Communications", "info_scope": "North America", "notes": "AS33588 IPv4 prefixes = 70", "created": "2009-01-30T16:19:48Z", "org_id": 1971, "policy_url": "https://www.spectrum.com/policies/ip-interconnection", "info_never_via_route_servers": true, "poc_updated": "2021-02-25T07:51:05.032352Z", "info_type": "access", "policy_contracts": "Private Only", "info_prefixes6": 1500, "aka": "Spectrum", "info_prefixes4": 10000, "info_ipv6": true, "irr_as_set": "AS-CHTR-BB", "pop_list": [{"city": "Ashburn", "country": "US", "state": "VA", "org_name": "Equinix, Inc.", "isp_id_in_peering_db": 1, "location": [39.02, -77.46], "port_capacity": 201000, "isp_type_in_peering_db": "fac", "internet_penetration_percentage": 0.852}, {"city": "Dallas", "country": "US", "state": "TX", "org_name": "Equinix, Inc.", "isp_id_in_peering_db": 3, "location": [32.8, -96.82], "port_capacity": 201000, "isp_type_in_peering_db": "ix", "internet_penetration_percentage": 0.8170000000000001}, {"city": "San Jose", "country": "US", "state": "CA", "org_name": "Equinix, Inc.", "isp_id_in_peering_db": 5, "location": [37.24, -121.78], "port_capacity": 201000, "isp_type_in_peering_db": "ix", "internet_penetration_percentage": 0.838}, {"city": "Miami", "country": "US", "state": "FL", "org_name": "Equinix, Inc.", "isp_id_in_peering_db": 15, "location": [25.78, -80.19], "port_capacity": 1000, "isp_type_in_peering_db": "fac", "internet_penetration_percentage": 0.8420000000000001}, {"city": "Chicago", "country": "US", "state": "IL", "org_name": "United IX", "isp_id_in_peering_db": 239, "location": [41.85, -87.62], "port_capacity": 261000, "isp_type_in_peering_db": "ix", "internet_penetration_percentage": 0.865}, {"city": "New York", "country": "US", "state": "NY", "org_name": "Digital Realty", "isp_id_in_peering_db": 16, "location": [40.74, -74.0], "port_capacity": 21000, "isp_type_in_peering_db": "fac", "internet_penetration_percentage": 0.802}, {"city": "Los Angeles", "country": "US", "state": "CA", "org_name": "CoreSite LLC", "isp_id_in_peering_db": 19, "location": [34.05, -118.26], "port_capacity": 202000, "isp_type_in_peering_db": "fac", "internet_penetration_percentage": 0.838}, {"city": "Seattle", "country": "US", "state": "WA", "org_name": "Seattle Internet Exchange", "isp_id_in_peering_db": 13, "location": [47.61, -122.34], "port_capacity": 301000, "isp_type_in_peering_db": "ix", "internet_penetration_percentage": 0.885}, {"city": "Vienna", "country": "US", "state": "VA", "org_name": "Equinix, Inc.", "isp_id_in_peering_db": 88, "location": [38.91, -77.22], "port_capacity": 1000, "isp_type_in_peering_db": "fac", "internet_penetration_percentage": 0.852}, {"city": "Atlanta", "country": "US", "state": "GA", "org_name": "Digital Realty", "isp_id_in_peering_db": 125, "location": [33.76, -84.39], "port_capacity": 101000, "isp_type_in_peering_db": "fac", "internet_penetration_percentage": 0.847}, {"city": "Minneapolis", "country": "US", "state": "MN", "org_name": "Midwest Internet Cooperative Exchange LLC", "isp_id_in_peering_db": 446, "location": [44.97, -93.25], "port_capacity": 11000, "isp_type_in_peering_db": "ix", "internet_penetration_percentage": 0.856}, {"city": "Houston", "country": "US", "state": "TX", "org_name": "CyrusOne", "isp_id_in_peering_db": 1476, "location": [29.84, -95.56], "port_capacity": 1000, "isp_type_in_peering_db": "fac", "internet_penetration_percentage": 0.8170000000000001}, {"city": "Chicago", "country": "US", "state": "IL", "org_name": "Lumen Technologies Inc", "isp_id_in_peering_db": 1730, "location": [41.9, -87.64], "port_capacity": 1000, "isp_type_in_peering_db": "fac", "internet_penetration_percentage": 0.865}, {"city": "Atlanta", "country": "US", "state": "GA", "org_name": "EdgeConneX", "isp_id_in_peering_db": 1929, "location": [33.73, -84.42], "port_capacity": 1000, "isp_type_in_peering_db": "fac", "internet_penetration_percentage": 0.847}, {"city": "Tampa", "country": "US", "state": "FL", "org_name": "365 Data Centers", "isp_id_in_peering_db": 2086, "location": [27.95, -82.46], "port_capacity": 1000, "isp_type_in_peering_db": "fac", "internet_penetration_percentage": 0.8420000000000001}, {"city": "St. Louis", "country": "US", "state": "MO", "org_name": "Netrality Data Centers", "isp_id_in_peering_db": 332, "location": [38.63, -90.2], "port_capacity": 2000, "isp_type_in_peering_db": "fac", "internet_penetration_percentage": 0.833}, {"city": "Denver", "country": "US", "state": "CO", "org_name": "CoreSite LLC", "isp_id_in_peering_db": 389, "location": [39.75, -105.0], "port_capacity": 1000, "isp_type_in_peering_db": "fac", "internet_penetration_percentage": 0.795}], "prefixes": 4849, "total_prefixes_in_globe": 8388478, "address_space": 16330024, "total_addresses_in_globe": 22264797636, "neighbor": 433}, {"status": "ok", "looking_glass": "http://lg.infowest.net/lg/", "route_server": "", "netixlan_updated": "2021-01-31T00:02:55Z", "info_ratio": "Mostly Inbound", "id": "2830", "policy_ratio": false, "info_unicast": true, "policy_general": "Open", "website": "http://www.infowest.com", "allow_ixp_update": false, "updated": "2020-07-01T14:21:57Z", "netfac_updated": "2021-01-04T21:37:36Z", "info_traffic": "20-50Gbps", "info_multicast": false, "asn": 11071, "policy_locations": "Not Required", "name": "InfoWest, Inc", "info_scope": "Regional", "notes": "", "created": "2009-12-29T14:35:47Z", "org_id": 2357, "policy_url": "", "info_never_via_route_servers": false, "poc_updated": "2020-01-22T04:24:09Z", "info_type": "transit", "policy_contracts": "Not Required", "info_prefixes6": 20, "aka": "", "info_prefixes4": 100, "info_ipv6": true, "irr_as_set": "AS-IWNET", "pop_list": [{"city": "San Jose", "country": "US", "state": "CA", "org_name": "Equinix, Inc.", "isp_id_in_peering_db": 6, "location": [37.24, -121.78], "port_capacity": 21000, "isp_type_in_peering_db": "fac", "internet_penetration_percentage": 0.838}, {"city": "Palo Alto", "country": "US", "state": "CA", "org_name": "Equinix, Inc.", "isp_id_in_peering_db": 7, "location": [37.45, -122.16], "port_capacity": 10000, "isp_type_in_peering_db": "ix", "internet_penetration_percentage": 0.838}, {"city": "Los Angeles", "country": "US", "state": "CA", "org_name": "CoreSite LLC", "isp_id_in_peering_db": 142, "location": [34.05, -118.26], "port_capacity": 21000, "isp_type_in_peering_db": "ix", "internet_penetration_percentage": 0.838}, {"city": "Los Angeles", "country": "US", "state": "CA", "org_name": "CoreSite LLC", "isp_id_in_peering_db": 363, "location": [34.06, -118.24], "port_capacity": 1000, "isp_type_in_peering_db": "fac", "internet_penetration_percentage": 0.838}, {"city": "Denver", "country": "US", "state": "CO", "org_name": "CoreSite LLC", "isp_id_in_peering_db": 389, "location": [39.75, -105.0], "port_capacity": 11000, "isp_type_in_peering_db": "fac", "internet_penetration_percentage": 0.795}, {"city": "Saint George", "country": "US", "state": "UT", "org_name": "Tonaquint Data Center, Inc.", "isp_id_in_peering_db": 1001, "location": [37.08, -113.61], "port_capacity": 11000, "isp_type_in_peering_db": "fac", "internet_penetration_percentage": 0.877}, {"city": "Salt Lake City", "country": "US", "state": "UT", "org_name": "SLIX", "isp_id_in_peering_db": 829, "location": [40.76, -111.96], "port_capacity": 10000, "isp_type_in_peering_db": "ix", "internet_penetration_percentage": 0.877}, {"city": "Salt Lake City", "country": "US", "state": "UT", "org_name": "Flexential Corp.", "isp_id_in_peering_db": 2445, "location": [40.76, -111.95], "port_capacity": 1000, "isp_type_in_peering_db": "fac", "internet_penetration_percentage": 0.877}], "prefixes": 39, "total_prefixes_in_globe": 8388478, "address_space": 62208, "total_addresses_in_globe": 22264797636, "neighbor": 40}, {"status": "ok", "looking_glass": "", "route_server": "", "netixlan_updated": "2021-03-03T19:50:14.917192Z", "info_ratio": "Heavy Outbound", "id": "2", "policy_ratio": false, "info_unicast": true, "policy_general": "Open", "website": "https://www.akamai.com/", "allow_ixp_update": false, "updated": "2020-07-10T21:14:24Z", "netfac_updated": "2021-02-27T14:40:19.970317Z", "info_traffic": "100+Tbps", "info_multicast": false, "asn": 20940, "policy_locations": "Not Required", "name": "Akamai Technologies", "info_scope": "Global", "notes": "AS20940 - the Akamai CDN - maintains an open peering policy.  Unless otherwise specified we will only announce the < 100 prefixes present in the cluster connected directly to you.\n\nPlease get in touch if you are interested in hosting an Akamai cluster inside your network!", "created": "2004-07-28T00:00:00Z", "org_id": 14, "policy_url": "", "info_never_via_route_servers": false, "poc_updated": "2020-03-30T14:59:38Z", "info_type": "content", "policy_contracts": "Not Required", "info_prefixes6": 2000, "aka": "", "info_prefixes4": 9000, "info_ipv6": true, "irr_as_set": "AS-AKAMAI", "pop_list": [{"city": "Palo Alto", "country": "US", "state": "CA", "org_name": "Equinix, Inc.", "isp_id_in_peering_db": 7, "location": [37.45, -122.16], "port_capacity": 100000, "isp_type_in_peering_db": "ix", "internet_penetration_percentage": 0.838}, {"city": "Newark", "country": "US", "state": "NJ", "org_name": "Equinix, Inc.", "isp_id_in_peering_db": 9, "location": [40.74, -74.17], "port_capacity": 1000, "isp_type_in_peering_db": "fac", "internet_penetration_percentage": 0.8240000000000001}, {"city": "San Jose", "country": "US", "state": "CA", "org_name": "Equinix, Inc.", "isp_id_in_peering_db": 5, "location": [37.24, -121.78], "port_capacity": 1000, "isp_type_in_peering_db": "ix", "internet_penetration_percentage": 0.838}, {"city": "Montgomery", "country": "US", "state": "AL", "org_name": "Montgomery Internet Exchange", "isp_id_in_peering_db": 1212, "location": [32.38, -86.3], "port_capacity": 100000, "isp_type_in_peering_db": "ix", "internet_penetration_percentage": 0.787}, {"city": "New York", "country": "US", "state": "NY", "org_name": "Equinix, Inc.", "isp_id_in_peering_db": 38, "location": [40.74, -74.0], "port_capacity": 102000, "isp_type_in_peering_db": "fac", "internet_penetration_percentage": 0.802}, {"city": "Dallas", "country": "US", "state": "TX", "org_name": "Megaport", "isp_id_in_peering_db": 1180, "location": [32.79, -96.79], "port_capacity": 20000, "isp_type_in_peering_db": "ix", "internet_penetration_percentage": 0.8170000000000001}, {"city": "Ashburn", "country": "US", "state": "VA", "org_name": "Megaport", "isp_id_in_peering_db": 1178, "location": [39.02, -77.46], "port_capacity": 411000, "isp_type_in_peering_db": "ix", "internet_penetration_percentage": 0.852}, {"city": "Ashland", "country": "US", "state": "VA", "org_name": "RVA-IX", "isp_id_in_peering_db": 1002, "location": [37.7, -77.44], "port_capacity": 10000, "isp_type_in_peering_db": "ix", "internet_penetration_percentage": 0.852}, {"city": "Indianapolis", "country": "US", "state": "IN", "org_name": "FD-IX / MidWest-IX", "isp_id_in_peering_db": 986, "location": [39.76, -86.17], "port_capacity": 40000, "isp_type_in_peering_db": "ix", "internet_penetration_percentage": 0.815}, {"city": "Miami", "country": "US", "state": "FL", "org_name": "Community IX Holdings", "isp_id_in_peering_db": 954, "location": [25.78, -80.19], "port_capacity": 201000, "isp_type_in_peering_db": "ix", "internet_penetration_percentage": 0.8420000000000001}, {"city": "San Jose", "country": "US", "state": "CA", "org_name": "Amsterdam Internet Exchange BV", "isp_id_in_peering_db": 935, "location": [37.33, -121.89], "port_capacity": 11000, "isp_type_in_peering_db": "ix", "internet_penetration_percentage": 0.838}, {"city": "Tampa", "country": "US", "state": "FL", "org_name": "WOW!", "isp_id_in_peering_db": 833, "location": [27.95, -82.46], "port_capacity": 20000, "isp_type_in_peering_db": "ix", "internet_penetration_percentage": 0.8420000000000001}, {"city": "Omaha", "country": "US", "state": "NE", "org_name": "OmahaIX", "isp_id_in_peering_db": 809, "location": [41.26, -95.94], "port_capacity": 40000, "isp_type_in_peering_db": "ix", "internet_penetration_percentage": 0.831}, {"city": "New York", "country": "US", "state": "NY", "org_name": "DE-CIX Management GmbH", "isp_id_in_peering_db": 804, "location": [40.72, -74.01], "port_capacity": 200000, "isp_type_in_peering_db": "ix", "internet_penetration_percentage": 0.802}, {"city": "Somerset", "country": "US", "state": "NJ", "org_name": "CyrusOne", "isp_id_in_peering_db": 2180, "location": [40.54, -74.55], "port_capacity": 1000, "isp_type_in_peering_db": "fac", "internet_penetration_percentage": 0.8240000000000001}, {"city": "Philadelphia", "country": "US", "state": "PA", "org_name": "Netrality Data Centers", "isp_id_in_peering_db": 2111, "location": [39.96, -75.16], "port_capacity": 201000, "isp_type_in_peering_db": "fac", "internet_penetration_percentage": 0.782}, {"city": "Billerica", "country": "US", "state": "MA", "org_name": "EdgeConneX", "isp_id_in_peering_db": 2073, "location": [42.53, -71.25], "port_capacity": 1000, "isp_type_in_peering_db": "fac", "internet_penetration_percentage": 0.784}, {"city": "McAllen", "country": "US", "state": "TX", "org_name": "MDC (McAllen Data Center)", "isp_id_in_peering_db": 1976, "location": [26.2, -98.23], "port_capacity": 101000, "isp_type_in_peering_db": "fac", "internet_penetration_percentage": 0.8170000000000001}, {"city": "Southfield", "country": "US", "state": "MI", "org_name": "EdgeConneX", "isp_id_in_peering_db": 1927, "location": [42.45, -83.26], "port_capacity": 1000, "isp_type_in_peering_db": "fac", "internet_penetration_percentage": 0.812}, {"city": "Boston", "country": "US", "state": "MA", "org_name": "Markley Group, LLC", "isp_id_in_peering_db": 565, "location": [42.35, -71.06], "port_capacity": 40000, "isp_type_in_peering_db": "ix", "internet_penetration_percentage": 0.784}, {"city": "Las Vegas", "country": "US", "state": "NV", "org_name": "EdgeConneX", "isp_id_in_peering_db": 1918, "location": [36.07, -115.13], "port_capacity": 1000, "isp_type_in_peering_db": "fac", "internet_penetration_percentage": 0.875}, {"city": "Tempe", "country": "US", "state": "AZ", "org_name": "EdgeConneX", "isp_id_in_peering_db": 1917, "location": [33.4, -111.97], "port_capacity": 1000, "isp_type_in_peering_db": "fac", "internet_penetration_percentage": 0.8390000000000001}, {"city": "Jacksonville", "country": "US", "state": "FL", "org_name": "Jacksonville Internet Exchange, Inc.", "isp_id_in_peering_db": 563, "location": [30.33, -81.66], "port_capacity": 10000, "isp_type_in_peering_db": "ix", "internet_penetration_percentage": 0.8420000000000001}, {"city": "Katy", "country": "US", "state": "TX", "org_name": "EdgeConneX", "isp_id_in_peering_db": 1910, "location": [29.79, -95.75], "port_capacity": 1000, "isp_type_in_peering_db": "fac", "internet_penetration_percentage": 0.8170000000000001}, {"city": "Englewood", "country": "US", "state": "CO", "org_name": "EdgeConneX", "isp_id_in_peering_db": 1875, "location": [39.56, -104.83], "port_capacity": 1000, "isp_type_in_peering_db": "fac", "internet_penetration_percentage": 0.795}, {"city": "Minneapolis", "country": "US", "state": "MN", "org_name": "Midwest Internet Cooperative Exchange LLC", "isp_id_in_peering_db": 446, "location": [44.97, -93.25], "port_capacity": 100000, "isp_type_in_peering_db": "ix", "internet_penetration_percentage": 0.856}, {"city": "Piscataway", "country": "US", "state": "NJ", "org_name": "QTS Realty Trust, Inc.", "isp_id_in_peering_db": 1177, "location": [40.56, -74.48], "port_capacity": 1000, "isp_type_in_peering_db": "fac", "internet_penetration_percentage": 0.8240000000000001}, {"city": "Kansas City", "country": "US", "state": "MO", "org_name": "Kansas City Internet eXchange, Inc", "isp_id_in_peering_db": 249, "location": [39.1, -94.58], "port_capacity": 100000, "isp_type_in_peering_db": "ix", "internet_penetration_percentage": 0.833}, {"city": "Dallas", "country": "US", "state": "TX", "org_name": "Equinix, Inc.", "isp_id_in_peering_db": 69, "location": [32.8, -96.82], "port_capacity": 102000, "isp_type_in_peering_db": "fac", "internet_penetration_percentage": 0.8170000000000001}, {"city": "Chicago", "country": "US", "state": "IL", "org_name": "United IX", "isp_id_in_peering_db": 239, "location": [41.85, -87.62], "port_capacity": 211000, "isp_type_in_peering_db": "ix", "internet_penetration_percentage": 0.865}, {"city": "Los Angeles", "country": "US", "state": "CA", "org_name": "CoreSite LLC", "isp_id_in_peering_db": 142, "location": [34.05, -118.26], "port_capacity": 52000, "isp_type_in_peering_db": "ix", "internet_penetration_percentage": 0.838}, {"city": "Atlanta", "country": "US", "state": "GA", "org_name": "Digital Realty", "isp_id_in_peering_db": 125, "location": [33.76, -84.39], "port_capacity": 212000, "isp_type_in_peering_db": "fac", "internet_penetration_percentage": 0.847}, {"city": "Seattle", "country": "US", "state": "WA", "org_name": "Equinix, Inc.", "isp_id_in_peering_db": 86, "location": [47.61, -122.34], "port_capacity": 202000, "isp_type_in_peering_db": "fac", "internet_penetration_percentage": 0.885}], "prefixes": 7641, "total_prefixes_in_globe": 8388478, "address_space": 13722448, "total_addresses_in_globe": 22264797636, "neighbor": 518}, {"status": "ok", "looking_glass": "", "route_server": "", "netixlan_updated": "2021-02-11T03:49:03.168949Z", "info_ratio": "Heavy Inbound", "id": "7885", "policy_ratio": false, "info_unicast": true, "policy_general": "Selective", "website": "https://www.softcom.net", "allow_ixp_update": false, "updated": "2019-12-27T00:01:19Z", "netfac_updated": "2021-01-04T22:55:10Z", "info_traffic": "5-10Gbps", "info_multicast": false, "asn": 13427, "policy_locations": "Not Required", "name": "Softcom Internet Communications", "info_scope": "Regional", "notes": "", "created": "2015-02-23T00:24:35Z", "org_id": 11838, "policy_url": "", "info_never_via_route_servers": false, "poc_updated": "2020-01-22T04:24:13Z", "info_type": "access", "policy_contracts": "Not Required", "info_prefixes6": 1, "aka": "Softcom", "info_prefixes4": 10, "info_ipv6": true, "irr_as_set": "RADB::AS-SOFTCOM", "pop_list": [{"city": "San Jose", "country": "US", "state": "CA", "org_name": "Equinix, Inc.", "isp_id_in_peering_db": 6, "location": [37.24, -121.78], "port_capacity": 11000, "isp_type_in_peering_db": "fac", "internet_penetration_percentage": 0.838}, {"city": "Palo Alto", "country": "US", "state": "CA", "org_name": "Equinix, Inc.", "isp_id_in_peering_db": 7, "location": [37.45, -122.16], "port_capacity": 10000, "isp_type_in_peering_db": "ix", "internet_penetration_percentage": 0.838}, {"city": "San Jose", "country": "US", "state": "CA", "org_name": "CoreSite LLC", "isp_id_in_peering_db": 20, "location": [37.33, -121.89], "port_capacity": 1000, "isp_type_in_peering_db": "fac", "internet_penetration_percentage": 0.838}, {"city": "Los Angeles", "country": "US", "state": "CA", "org_name": "CoreSite LLC", "isp_id_in_peering_db": 142, "location": [34.05, -118.26], "port_capacity": 10000, "isp_type_in_peering_db": "ix", "internet_penetration_percentage": 0.838}, {"city": "Sacramento", "country": "US", "state": "CA", "org_name": "RagingWire Data Centers - NTT Communications", "isp_id_in_peering_db": 1110, "location": [38.65, -121.49], "port_capacity": 1000, "isp_type_in_peering_db": "fac", "internet_penetration_percentage": 0.838}, {"city": "San Francisco", "country": "US", "state": "CA", "org_name": "SFMIX", "isp_id_in_peering_db": 155, "location": [37.72, -122.4], "port_capacity": 10000, "isp_type_in_peering_db": "ix", "internet_penetration_percentage": 0.838}], "prefixes": 6, "total_prefixes_in_globe": 8388478, "address_space": 6144, "total_addresses_in_globe": 22264797636, "neighbor": 18}, {"status": "ok", "looking_glass": "", "route_server": "", "netixlan_updated": "2019-10-24T21:33:55Z", "info_ratio": "Heavy Outbound", "id": "1407", "policy_ratio": false, "info_unicast": true, "policy_general": "Selective", "website": "http://www.pandora.com", "allow_ixp_update": false, "updated": "2020-07-01T14:21:57Z", "netfac_updated": "2019-10-24T21:34:13Z", "info_traffic": "200-300Gbps", "info_multicast": false, "asn": 40428, "policy_locations": "Not Required", "name": "Pandora Media, Inc", "info_scope": "North America", "notes": "We are currently located at the\nEquinix Ashburn, Equinix Chicago and Equinix San Jose exchanges.", "created": "2007-12-10T23:10:42Z", "org_id": 1513, "policy_url": "", "info_never_via_route_servers": false, "poc_updated": "2019-10-15T19:00:14Z", "info_type": "content", "policy_contracts": "Not Required", "info_prefixes6": 8, "aka": "", "info_prefixes4": 16, "info_ipv6": true, "irr_as_set": "rs-pandora", "pop_list": [{"city": "Ashburn", "country": "US", "state": "VA", "org_name": "Equinix, Inc.", "isp_id_in_peering_db": 1, "location": [39.02, -77.46], "port_capacity": 41000, "isp_type_in_peering_db": "fac", "internet_penetration_percentage": 0.852}, {"city": "San Jose", "country": "US", "state": "CA", "org_name": "Equinix, Inc.", "isp_id_in_peering_db": 6, "location": [37.24, -121.78], "port_capacity": 43000, "isp_type_in_peering_db": "fac", "internet_penetration_percentage": 0.838}, {"city": "San Jose", "country": "US", "state": "CA", "org_name": "Equinix, Inc.", "isp_id_in_peering_db": 436, "location": [37.39, -121.89], "port_capacity": 1000, "isp_type_in_peering_db": "fac", "internet_penetration_percentage": 0.838}], "prefixes": 13, "total_prefixes_in_globe": 8388478, "address_space": 2560, "total_addresses_in_globe": 22264797636, "neighbor": 16}, {"status": "ok", "looking_glass": "", "route_server": "", "netixlan_updated": "2021-02-26T04:40:32.730132Z", "info_ratio": "Heavy Outbound", "id": "3347", "policy_ratio": false, "info_unicast": true, "policy_general": "Selective", "website": "https://www.playstation.com/", "allow_ixp_update": false, "updated": "2021-02-26T05:02:09Z", "netfac_updated": "2020-10-16T02:51:13Z", "info_traffic": "", "info_multicast": false, "asn": 33353, "policy_locations": "Not Required", "name": "Sony Interactive Entertainment (PlayStation)", "info_scope": "Global", "notes": "We recommend that you set your max-prefix to 1,000.\n\nIf we have traffic to you, we will peer with you. Additionally we peer with Route Servers at any IX we connect to.\n\nFor traffic engineering purposes not all routes are advertised in all locations. Additionally some sessions within a region may only advertise a subset of routes.", "created": "2010-08-03T20:11:10Z", "org_id": 9267, "policy_url": "", "info_never_via_route_servers": false, "poc_updated": "2020-01-22T04:24:10Z", "info_type": "content", "policy_contracts": "Not Required", "info_prefixes6": 100, "aka": "Sony", "info_prefixes4": 1000, "info_ipv6": true, "irr_as_set": "AS-SONY-CGEI", "pop_list": [{"city": "Ashburn", "country": "US", "state": "VA", "org_name": "Equinix, Inc.", "isp_id_in_peering_db": 1, "location": [39.02, -77.46], "port_capacity": 11000, "isp_type_in_peering_db": "fac", "internet_penetration_percentage": 0.852}, {"city": "Chicago", "country": "US", "state": "IL", "org_name": "Equinix, Inc.", "isp_id_in_peering_db": 7, "location": [41.85, -87.62], "port_capacity": 21000, "isp_type_in_peering_db": "fac", "internet_penetration_percentage": 0.865}, {"city": "San Jose", "country": "US", "state": "CA", "org_name": "Equinix, Inc.", "isp_id_in_peering_db": 5, "location": [37.24, -121.78], "port_capacity": 11000, "isp_type_in_peering_db": "ix", "internet_penetration_percentage": 0.838}, {"city": "San Jose", "country": "US", "state": "CA", "org_name": "CoreSite LLC", "isp_id_in_peering_db": 20, "location": [37.33, -121.89], "port_capacity": 1000, "isp_type_in_peering_db": "fac", "internet_penetration_percentage": 0.838}, {"city": "New York", "country": "US", "state": "NY", "org_name": "DE-CIX Management GmbH", "isp_id_in_peering_db": 804, "location": [40.72, -74.01], "port_capacity": 20000, "isp_type_in_peering_db": "ix", "internet_penetration_percentage": 0.802}, {"city": "New York", "country": "US", "state": "NY", "org_name": "CoreSite LLC", "isp_id_in_peering_db": 670, "location": [40.72, -74.0], "port_capacity": 1000, "isp_type_in_peering_db": "fac", "internet_penetration_percentage": 0.802}, {"city": "Reston", "country": "US", "state": "VA", "org_name": "CoreSite LLC", "isp_id_in_peering_db": 668, "location": [38.95, -77.36], "port_capacity": 1000, "isp_type_in_peering_db": "fac", "internet_penetration_percentage": 0.852}, {"city": "Denver", "country": "US", "state": "CO", "org_name": "CoreSite LLC", "isp_id_in_peering_db": 389, "location": [39.75, -105.0], "port_capacity": 1000, "isp_type_in_peering_db": "fac", "internet_penetration_percentage": 0.795}, {"city": "Chicago", "country": "US", "state": "IL", "org_name": "CoreSite LLC", "isp_id_in_peering_db": 226, "location": [41.88, -87.63], "port_capacity": 11000, "isp_type_in_peering_db": "ix", "internet_penetration_percentage": 0.865}, {"city": "Newark", "country": "US", "state": "NJ", "org_name": "Tishman Real Estate Services", "isp_id_in_peering_db": 350, "location": [40.74, -74.17], "port_capacity": 1000, "isp_type_in_peering_db": "fac", "internet_penetration_percentage": 0.8240000000000001}, {"city": "Washington", "country": "US", "state": "DC", "org_name": "CoreSite LLC", "isp_id_in_peering_db": 204, "location": [38.9, -77.03], "port_capacity": 10000, "isp_type_in_peering_db": "ix", "internet_penetration_percentage": 0.841}, {"city": "Dallas", "country": "US", "state": "TX", "org_name": "Equinix, Inc.", "isp_id_in_peering_db": 69, "location": [32.8, -96.82], "port_capacity": 11000, "isp_type_in_peering_db": "fac", "internet_penetration_percentage": 0.8170000000000001}, {"city": "Los Angeles", "country": "US", "state": "CA", "org_name": "CoreSite LLC", "isp_id_in_peering_db": 142, "location": [34.05, -118.26], "port_capacity": 32000, "isp_type_in_peering_db": "ix", "internet_penetration_percentage": 0.838}, {"city": "Seattle", "country": "US", "state": "WA", "org_name": "Equinix, Inc.", "isp_id_in_peering_db": 86, "location": [47.61, -122.34], "port_capacity": 11000, "isp_type_in_peering_db": "fac", "internet_penetration_percentage": 0.885}, {"city": "Atlanta", "country": "US", "state": "GA", "org_name": "Digital Realty", "isp_id_in_peering_db": 125, "location": [33.76, -84.39], "port_capacity": 12000, "isp_type_in_peering_db": "fac", "internet_penetration_percentage": 0.847}], "prefixes": 114, "total_prefixes_in_globe": 8388478, "address_space": 56064, "total_addresses_in_globe": 22264797636, "neighbor": 157}, {"status": "ok", "looking_glass": "", "route_server": "", "netixlan_updated": "2021-01-31T00:02:59Z", "info_ratio": "Mostly Inbound", "id": "1185", "policy_ratio": true, "info_unicast": true, "policy_general": "Selective", "website": "https://www.cwc.com/", "allow_ixp_update": false, "updated": "2020-07-01T14:21:57Z", "netfac_updated": "2019-05-02T11:31:40Z", "info_traffic": "300-500Gbps", "info_multicast": false, "asn": 23520, "policy_locations": "Not Required", "name": "Columbus Networks", "info_scope": "Regional", "notes": "Part of Liberty Latin America (see https://www.lla.com/our-companies.html).", "created": "2007-06-14T16:07:01Z", "org_id": 6392, "policy_url": "", "info_never_via_route_servers": false, "poc_updated": "2020-04-06T18:29:20Z", "info_type": "transit", "policy_contracts": "Not Required", "info_prefixes6": 1000, "aka": "Arcos Cable, Cable & Wireless Communications", "info_prefixes4": 10000, "info_ipv6": true, "irr_as_set": "RADB::AS-NWN-TRANSIT", "pop_list": [{"city": "Ashburn", "country": "US", "state": "VA", "org_name": "Equinix, Inc.", "isp_id_in_peering_db": 1, "location": [39.02, -77.46], "port_capacity": 11000, "isp_type_in_peering_db": "fac", "internet_penetration_percentage": 0.852}, {"city": "San Jose", "country": "US", "state": "CA", "org_name": "Equinix, Inc.", "isp_id_in_peering_db": 6, "location": [37.24, -121.78], "port_capacity": 1000, "isp_type_in_peering_db": "fac", "internet_penetration_percentage": 0.838}, {"city": "Jacksonville", "country": "US", "state": "FL", "org_name": "Cologix, Inc.", "isp_id_in_peering_db": 1946, "location": [30.33, -81.66], "port_capacity": 1000, "isp_type_in_peering_db": "fac", "internet_penetration_percentage": 0.8420000000000001}, {"city": "Chicago", "country": "US", "state": "IL", "org_name": "Equinix, Inc.", "isp_id_in_peering_db": 7, "location": [41.85, -87.62], "port_capacity": 1000, "isp_type_in_peering_db": "fac", "internet_penetration_percentage": 0.865}, {"city": "New York", "country": "US", "state": "NY", "org_name": "Digital Realty", "isp_id_in_peering_db": 325, "location": [40.72, -74.01], "port_capacity": 10000, "isp_type_in_peering_db": "ix", "internet_penetration_percentage": 0.802}, {"city": "Atlanta", "country": "US", "state": "GA", "org_name": "Digital Realty", "isp_id_in_peering_db": 22, "location": [33.76, -84.39], "port_capacity": 100000, "isp_type_in_peering_db": "ix", "internet_penetration_percentage": 0.847}, {"city": "Miami", "country": "US", "state": "FL", "org_name": "Equinix, Inc.", "isp_id_in_peering_db": 17, "location": [25.78, -80.19], "port_capacity": 201000, "isp_type_in_peering_db": "ix", "internet_penetration_percentage": 0.8420000000000001}, {"city": "New York", "country": "US", "state": "NY", "org_name": "Equinix, Inc.", "isp_id_in_peering_db": 38, "location": [40.74, -74.0], "port_capacity": 12000, "isp_type_in_peering_db": "fac", "internet_penetration_percentage": 0.802}], "prefixes": 18088, "total_prefixes_in_globe": 8388478, "address_space": 33048000, "total_addresses_in_globe": 22264797636, "neighbor": 153}]