{"data": {"name": "COMCAST-7922", "traffic_ratio": "BALANCED", "pop_list": [{"org_name": "EdgeConneX", "isp_type_in_peering_db": "fac", "city": "Richmond", "isp_id_in_peering_db": 2075, "state": "VA", "name": "EdgeConneX Richmond (EDCRIC01)", "port_capacity": 1000, "location": [37.638915, -77.467703], "internet_penetration_percentage": 0.852}, {"isp_type_in_peering_db": "fac", "state": "IL", "location": [41.85365, -87.618342], "isp_id_in_peering_db": 7, "name": "Equinix CH1/CH2/CH4 - Chicago", "org_name": "Equinix, Inc.", "city": "Chicago", "port_capacity": 1000, "internet_penetration_percentage": 0.865}, {"org_name": "EdgeConneX", "isp_type_in_peering_db": "fac", "state": "PA", "name": "EdgeConneX Pittsburgh (EDCPIT01)", "location": [40.452221, -80.041515], "city": "Pittsburgh", "port_capacity": 1000, "isp_id_in_peering_db": 1925, "internet_penetration_percentage": 0.782}, {"isp_type_in_peering_db": "fac", "isp_id_in_peering_db": 1422, "org_name": "DataBank, Ltd.", "state": "NY", "city": "New York", "location": [40.717664, -74.008333], "port_capacity": 1000, "name": "DataBank New York (LGA1)", "internet_penetration_percentage": 0.802}, {"isp_type_in_peering_db": "fac", "location": [41.920029, -87.912164], "state": "IL", "isp_id_in_peering_db": 2770, "city": "Northlake", "port_capacity": 1000, "name": "Ascent - CH2", "org_name": "Ascent, LLC", "internet_penetration_percentage": 0.865}, {"isp_type_in_peering_db": "fac", "state": "NY", "location": [40.741469, -74.003387], "city": "New York", "org_name": "Digital Realty", "port_capacity": 1000, "isp_id_in_peering_db": 16, "name": "Digital Realty NYC (111 8th Ave)", "internet_penetration_percentage": 0.802}, {"org_name": "EdgeConneX", "isp_type_in_peering_db": "fac", "name": "EdgeConneX Jacksonville (EDCJAX01)", "location": [30.254238, -81.604183], "city": "Jacksonville", "state": "FL", "port_capacity": 1000, "isp_id_in_peering_db": 2076, "internet_penetration_percentage": 0.8420000000000001}, {"isp_type_in_peering_db": "fac", "location": [39.000821, -77.479198], "isp_id_in_peering_db": 1878, "state": "VA", "org_name": "Digital Realty", "city": "Ashburn", "name": "Digital Realty IAD (43940 Digital Loudoun)", "port_capacity": 1000, "internet_penetration_percentage": 0.852}, {"isp_type_in_peering_db": "fac", "location": [39.745636, -104.995636], "name": "CoreSite - Denver (DE1)", "org_name": "CoreSite LLC", "port_capacity": 1000, "isp_id_in_peering_db": 389, "state": "CO", "city": "Denver", "internet_penetration_percentage": 0.795}, {"org_name": "EdgeConneX", "isp_type_in_peering_db": "fac", "isp_id_in_peering_db": 1927, "name": "EdgeConneX Detroit (EDCDET01)", "location": [42.448537, -83.261226], "city": "Southfield", "port_capacity": 1000, "state": "MI", "internet_penetration_percentage": 0.812}, {"isp_type_in_peering_db": "fac", "location": [40.736844, -74.173402], "name": "DataBank Newark (EWR1)", "org_name": "DataBank, Ltd.", "isp_id_in_peering_db": 1820, "state": "NJ", "city": "Newark", "port_capacity": 1000, "internet_penetration_percentage": 0.8240000000000001}, {"org_name": "EdgeConneX", "name": "EdgeConneX Miami (EDCMIA01)", "isp_type_in_peering_db": "fac", "city": "Miami", "isp_id_in_peering_db": 1923, "state": "FL", "port_capacity": 1000, "location": [25.793016, -80.38119], "internet_penetration_percentage": 0.8420000000000001}, {"org_name": "EdgeConneX", "isp_type_in_peering_db": "fac", "name": "EdgeConneX Minneapolis (EDCMSP01)", "location": [44.878844, -93.404156], "isp_id_in_peering_db": 2601, "city": "Eden Prairie", "port_capacity": 1000, "state": "MN", "internet_penetration_percentage": 0.856}, {"org_name": "EdgeConneX", "isp_type_in_peering_db": "fac", "location": [38.592346, -121.277389], "city": "Rancho Cordova", "isp_id_in_peering_db": 1926, "port_capacity": 1000, "name": "EdgeConneX Sacramento (EDCSAC01)", "state": "CA", "internet_penetration_percentage": 0.838}, {"isp_type_in_peering_db": "fac", "city": "San Jose", "org_name": "Equinix, Inc.", "location": [37.241767, -121.782967], "port_capacity": 1000, "isp_id_in_peering_db": 6, "name": "Equinix SV1/SV5/SV10 - Silicon Valley, San Jose", "state": "CA", "internet_penetration_percentage": 0.838}, {"org_name": "EdgeConneX", "isp_type_in_peering_db": "fac", "isp_id_in_peering_db": 2078, "state": "WA", "name": "EdgeConneX Seattle (EDCSEA01)", "port_capacity": 1000, "location": [47.498209, -122.289962], "city": "Tukwila", "internet_penetration_percentage": 0.885}, {"city": "Palo Alto", "name": "Equinix SV8 - Silicon Valley, Palo Alto", "isp_type_in_peering_db": "fac", "isp_id_in_peering_db": 5, "location": [37.445896, -122.160775], "org_name": "Equinix, Inc.", "port_capacity": 1000, "state": "CA", "internet_penetration_percentage": 0.838}, {"isp_type_in_peering_db": "fac", "city": "Miami", "name": "Equinix MI1 - Miami, NOTA", "location": [25.782648, -80.193157], "org_name": "Equinix, Inc.", "state": "FL", "port_capacity": 1000, "isp_id_in_peering_db": 15, "internet_penetration_percentage": 0.8420000000000001}, {"location": [42.354692, -71.060266], "isp_type_in_peering_db": "fac", "city": "Boston", "name": "Markley Group One Summer Street Boston", "isp_id_in_peering_db": 219, "state": "MA", "port_capacity": 1000, "org_name": "Markley Group, LLC", "internet_penetration_percentage": 0.784}, {"org_name": "EdgeConneX", "isp_type_in_peering_db": "fac", "location": [42.528505, -71.249495], "state": "MA", "city": "Billerica", "port_capacity": 1000, "isp_id_in_peering_db": 2073, "name": "EdgeConneX Boston (EDCBOS01)", "internet_penetration_percentage": 0.784}, {"org_name": "EdgeConneX", "isp_type_in_peering_db": "fac", "location": [36.144881, -86.701721], "city": "Nashville", "name": "EdgeConneX Nashville (EDCNAS01)", "port_capacity": 1000, "state": "TN", "isp_id_in_peering_db": 1924, "internet_penetration_percentage": 0.782}, {"org_name": "EdgeConneX", "isp_type_in_peering_db": "fac", "location": [40.720873, -111.984927], "name": "EdgeConneX Salt Lake City (EDCSLC01)", "isp_id_in_peering_db": 2077, "port_capacity": 1000, "city": "Salt Lake City", "state": "UT", "internet_penetration_percentage": 0.877}, {"city": "Houston", "org_name": "CyrusOne", "isp_type_in_peering_db": "fac", "location": [29.844182, -95.556656], "name": "CyrusOne Houston West", "isp_id_in_peering_db": 1476, "port_capacity": 1000, "state": "TX", "internet_penetration_percentage": 0.8170000000000001}, {"isp_type_in_peering_db": "fac", "location": [32.800955, -96.81955], "isp_id_in_peering_db": 4, "city": "Dallas", "name": "Equinix DA1 - Dallas", "org_name": "Equinix, Inc.", "port_capacity": 1000, "state": "TX", "internet_penetration_percentage": 0.8170000000000001}, {"org_name": "EdgeConneX", "isp_type_in_peering_db": "fac", "state": "OR", "city": "Hillsboro", "isp_id_in_peering_db": 1922, "port_capacity": 1000, "location": [45.548296, -122.907473], "name": "EdgeConneX Portland (EDCPOR01)", "internet_penetration_percentage": 0.8740000000000001}, {"org_name": "EdgeConneX", "isp_type_in_peering_db": "fac", "isp_id_in_peering_db": 1910, "city": "Katy", "port_capacity": 1000, "name": "EdgeConneX Houston (EDCHOU01)", "location": [29.794579, -95.745149], "state": "TX", "internet_penetration_percentage": 0.8170000000000001}, {"org_name": "EdgeConneX", "city": "Atlanta", "isp_type_in_peering_db": "fac", "isp_id_in_peering_db": 1929, "name": "EdgeConneX Atlanta (EDCATL01)", "port_capacity": 1000, "location": [33.729369, -84.420099], "state": "GA", "internet_penetration_percentage": 0.847}, {"isp_type_in_peering_db": "fac", "isp_id_in_peering_db": 8, "name": "Equinix LA1 - Los Angeles", "org_name": "Equinix, Inc.", "location": [34.047501, -118.2573], "port_capacity": 1000, "city": "Los Angeles", "state": "CA", "internet_penetration_percentage": 0.838}, {"city": "Atlanta", "name": "Digital Realty ATL (56 Marietta)", "isp_type_in_peering_db": "fac", "location": [33.755456, -84.39153], "org_name": "Digital Realty", "port_capacity": 1000, "isp_id_in_peering_db": 125, "state": "GA", "internet_penetration_percentage": 0.847}, {"org_name": "EdgeConneX", "isp_type_in_peering_db": "fac", "location": [35.038995, -89.88623], "city": "Memphis", "isp_id_in_peering_db": 1930, "name": "EdgeConneX Memphis (EDCMEM01)", "port_capacity": 1000, "state": "TN", "internet_penetration_percentage": 0.782}, {"isp_type_in_peering_db": "fac", "isp_id_in_peering_db": 1, "state": "VA", "org_name": "Equinix, Inc.", "city": "Ashburn", "port_capacity": 1000, "name": "Equinix DC1-DC15, DC21 - Ashburn", "location": [39.016363, -77.459023], "internet_penetration_percentage": 0.852}, {"city": "Santa Clara", "isp_type_in_peering_db": "fac", "location": [37.374919, -121.970216], "isp_id_in_peering_db": 2762, "name": "CoreSite - Santa Clara (SV3)", "org_name": "CoreSite LLC", "port_capacity": 1000, "state": "CA", "internet_penetration_percentage": 0.838}, {"org_name": "EdgeConneX", "city": "Englewood", "isp_type_in_peering_db": "fac", "isp_id_in_peering_db": 1875, "name": "EdgeConneX Denver (EDCDEN01)", "port_capacity": 1000, "state": "CO", "location": [39.561073, -104.826671], "internet_penetration_percentage": 0.795}, {"isp_type_in_peering_db": "fac", "name": "CoreSite - Los Angeles (LA1) One Wilshire", "org_name": "CoreSite LLC", "port_capacity": 1000, "isp_id_in_peering_db": 19, "city": "Los Angeles", "state": "CA", "location": [34.047942, -118.255564], "internet_penetration_percentage": 0.838}, {"org_name": "EdgeConneX", "isp_type_in_peering_db": "fac", "isp_id_in_peering_db": 2074, "location": [30.471969, -84.353232], "name": "EdgeConneX Tallahassee (EDCTAL01)", "state": "FL", "port_capacity": 1000, "city": "Talahassee", "internet_penetration_percentage": 0.8420000000000001}, {"isp_type_in_peering_db": "fac", "name": "Equinix SE2/SE3 - Seattle", "state": "WA", "location": [47.614358, -122.338864], "city": "Seattle", "org_name": "Equinix, Inc.", "port_capacity": 1000, "isp_id_in_peering_db": 86, "internet_penetration_percentage": 0.885}], "prefixes": 44844, "total_prefixes_in_globe": 9162191, "address_space": 119845951, "total_addresses_in_globe": 23673608486, "neighbor": 193, "info_type": "access"}}