{"data": {"name": "CABLEONE", "traffic_ratio": "HEAVY INBOUND", "pop_list": [{"isp_id_in_peering_db": 11, "port_capacity": 1000, "location": [33.755456, -84.39153], "state": "GA", "isp_type_in_peering_db": "fac", "name": "Equinix AT2/AT3 - Atlanta", "org_name": "Equinix", "city": "Atlanta", "internet_penetration_percentage": 0.847}, {"state": "AZ", "org_name": "Digital Realty", "name": "Digital Realty PHX (120 E Van Buren)", "port_capacity": 1000, "isp_id_in_peering_db": 171, "isp_type_in_peering_db": "fac", "city": "Phoenix", "location": [33.452003, -112.072042], "internet_penetration_percentage": 0.8390000000000001}, {"state": "AZ", "org_name": "Iron Mountain Data Centers", "port_capacity": 1000, "location": [33.454411, -111.976435], "city": "Phoenix", "isp_type_in_peering_db": "fac", "name": "Iron Mountain Data Center - Phoenix (AZP-1)", "isp_id_in_peering_db": 572, "internet_penetration_percentage": 0.8390000000000001}, {"location": [43.56619, -116.185889], "isp_id_in_peering_db": 1948, "name": "Level(3) Boise", "org_name": "Level 3 Communications, LLC", "port_capacity": 1000, "city": "Boise", "isp_type_in_peering_db": "fac", "state": "ID", "internet_penetration_percentage": 0.8759999999999999}, {"state": "TX", "location": [32.800955, -96.81955], "city": "Dallas", "port_capacity": 1000, "isp_id_in_peering_db": 2578, "isp_type_in_peering_db": "fac", "name": "Equinix DA2 - Dallas", "org_name": "Equinix", "internet_penetration_percentage": 0.8170000000000001}, {"city": "Seattle", "org_name": "SIX Seattle", "location": [47.614347, -122.338883], "name": "SIX Seattle", "isp_id_in_peering_db": 13, "port_capacity": 100000, "state": "WA", "isp_type_in_peering_db": "ix", "internet_penetration_percentage": 0.885}, {"org_name": "Netrality Data Centers", "name": "Netrality Kansas City - 1102 Grand", "isp_id_in_peering_db": 435, "port_capacity": 1000, "location": [39.100941, -94.581036], "city": "Kansas City", "state": "MO", "isp_type_in_peering_db": "fac", "internet_penetration_percentage": 0.833}, {"city": "Chicago", "org_name": "Equinix", "port_capacity": 1000, "location": [41.85365, -87.618342], "isp_id_in_peering_db": 7, "isp_type_in_peering_db": "fac", "name": "Equinix CH1/CH2/CH4 - Chicago", "state": "IL", "internet_penetration_percentage": 0.865}, {"isp_id_in_peering_db": 249, "org_name": "KCIX", "location": [39.100941, -94.581036], "port_capacity": 20000, "city": "Kansas City", "state": "MO", "name": "KCIX", "isp_type_in_peering_db": "ix", "internet_penetration_percentage": 0.833}, {"state": "TX", "isp_id_in_peering_db": 1249, "name": "DE-CIX Dallas", "city": "Dallas", "port_capacity": 20000, "location": [32.787212, -96.794219], "org_name": "DE-CIX Dallas", "isp_type_in_peering_db": "ix", "internet_penetration_percentage": 0.8170000000000001}, {"city": "Seattle", "location": [47.614347, -122.338883], "port_capacity": 1000, "org_name": "The Westin Building", "isp_id_in_peering_db": 71, "isp_type_in_peering_db": "fac", "name": "Westin Building Seattle", "state": "WA", "internet_penetration_percentage": 0.885}, {"state": "AZ", "city": "Tempe", "isp_id_in_peering_db": 1917, "port_capacity": 1000, "org_name": "EdgeConneX", "isp_type_in_peering_db": "fac", "name": "EdgeConneX Phoenix (EDCPHX01)", "location": [33.395544, -111.97012], "internet_penetration_percentage": 0.8390000000000001}], "prefixes": 4199, "total_prefixes_in_globe": 7995542, "address_space": 1231872, "total_addresses_in_globe": 19498300372, "neighbor": 38, "info_type": "access"}}