{"data": {"name": "CW", "traffic_ratio": "BALANCED", "pop_list": [{"location": [40.753599, -73.99198], "name": "Equinix NY9 - New York, 111 8th Avenue", "state": "NY", "isp_id_in_peering_db": 38, "isp_type_in_peering_db": "fac", "org_name": "Equinix", "port_capacity": 1000, "city": "New York", "internet_penetration_percentage": 0.802}, {"name": "Equinix NY1 - New York, Newark", "port_capacity": 1000, "isp_id_in_peering_db": 9, "isp_type_in_peering_db": "fac", "state": "NJ", "city": "Newark", "org_name": "Equinix", "location": [40.736844, -74.173402], "internet_penetration_percentage": 0.8240000000000001}, {"state": "NY", "isp_id_in_peering_db": 16, "org_name": "Digital Realty", "location": [40.741355, -74.003203], "isp_type_in_peering_db": "fac", "name": "Digital Realty NYC (111 8th Ave)", "port_capacity": 1000, "city": "New York", "internet_penetration_percentage": 0.802}, {"isp_id_in_peering_db": 142, "isp_type_in_peering_db": "ix", "city": "Los Angeles", "name": "CoreSite - Any2 California", "org_name": "CoreSite - Any2 California", "location": [34.047942, -118.255564], "state": "CA", "port_capacity": 10000, "internet_penetration_percentage": 0.838}, {"isp_id_in_peering_db": 23, "isp_type_in_peering_db": "ix", "city": "Los Angeles", "name": "NYIIX Los Angeles", "org_name": "NYIIX Los Angeles", "location": [34.047942, -118.255564], "state": "CA", "port_capacity": 10000, "internet_penetration_percentage": 0.838}, {"isp_id_in_peering_db": 1820, "port_capacity": 1000, "isp_type_in_peering_db": "fac", "state": "NJ", "city": "Newark", "location": [40.736844, -74.173402], "name": "zColo Newark - 165 Halsey St", "org_name": "Zayo Group", "internet_penetration_percentage": 0.8240000000000001}, {"name": "NYIIX", "location": [40.717723, -74.008299], "org_name": "NYIIX", "isp_type_in_peering_db": "ix", "state": "NY", "isp_id_in_peering_db": 14, "port_capacity": 40000, "city": "New York", "internet_penetration_percentage": 0.802}, {"name": "Equinix SV8 - Silicon Valley, Palo Alto", "org_name": "Equinix", "location": [37.445896, -122.160775], "isp_id_in_peering_db": 5, "isp_type_in_peering_db": "fac", "state": "CA", "port_capacity": 1000, "city": "Palo Alto", "internet_penetration_percentage": 0.838}, {"isp_id_in_peering_db": 1, "isp_type_in_peering_db": "ix", "state": "VA", "location": [39.016363, -77.459023], "city": "Ashburn", "name": "Equinix Ashburn", "org_name": "Equinix Ashburn", "port_capacity": 10000, "internet_penetration_percentage": 0.852}, {"location": [41.85365, -87.618342], "isp_id_in_peering_db": 7, "name": "Equinix CH1/CH2/CH4 - Chicago", "city": "Chicago", "isp_type_in_peering_db": "fac", "state": "IL", "org_name": "Equinix", "port_capacity": 1000, "internet_penetration_percentage": 0.865}, {"isp_id_in_peering_db": 7, "isp_type_in_peering_db": "ix", "location": [37.445896, -122.160775], "name": "Equinix Palo Alto", "org_name": "Equinix Palo Alto", "state": "CA", "port_capacity": 10000, "city": "Palo Alto", "internet_penetration_percentage": 0.838}, {"city": "Los Angeles", "name": "CoreSite - Los Angeles (LA1) One Wilshire", "isp_id_in_peering_db": 19, "org_name": "CoreSite LLC", "location": [34.047942, -118.255564], "isp_type_in_peering_db": "fac", "state": "CA", "port_capacity": 1000, "internet_penetration_percentage": 0.838}, {"location": [40.753599, -73.99198], "isp_type_in_peering_db": "ix", "state": "NY", "name": "Equinix New York", "isp_id_in_peering_db": 12, "org_name": "Equinix New York", "port_capacity": 10000, "city": "New York", "internet_penetration_percentage": 0.802}, {"isp_id_in_peering_db": 1, "name": "Equinix DC1-DC15 - Ashburn", "state": "VA", "location": [39.016363, -77.459023], "city": "Ashburn", "isp_type_in_peering_db": "fac", "org_name": "Equinix", "port_capacity": 1000, "internet_penetration_percentage": 0.852}, {"isp_id_in_peering_db": 17, "isp_type_in_peering_db": "ix", "location": [25.782648, -80.193157], "city": "Miami", "name": "Equinix Miami IX", "org_name": "Equinix Miami IX", "state": "FL", "port_capacity": 10000, "internet_penetration_percentage": 0.8420000000000001}, {"name": "Equinix MI1 - Miami, NOTA", "location": [25.782648, -80.193157], "city": "Miami", "state": "FL", "isp_id_in_peering_db": 15, "isp_type_in_peering_db": "fac", "org_name": "Equinix", "port_capacity": 1000, "internet_penetration_percentage": 0.8420000000000001}], "prefixes": 140379, "total_prefixes_in_globe": 7995542, "address_space": 274163960, "total_addresses_in_globe": 19498300372, "neighbor": 314, "info_type": "transit"}}