{
  "data": {
    "name": "TELIANET",
    "traffic_ratio": "BALANCED",
    "pop_list": [
      {
        "isp_id_in_peering_db": 2445,
        "location": [40.756302, -111.954307],
        "name": "Flexential - Salt Lake City/Downtown (SLC04)",
        "port_capacity": 1000,
        "state": "UT",
        "city": "Salt Lake City",
        "isp_type_in_peering_db": "fac",
        "org_name": "Flexential Corp.",
        "internet_penetration_percentage": 0.877
      },
      {
        "city": "McAllen",
        "state": "TX",
        "org_name": "MDC (McAllen Data Center)",
        "port_capacity": 1000,
        "name": "MDC McAllen",
        "isp_type_in_peering_db": "fac",
        "location": [26.201927, -98.231367],
        "isp_id_in_peering_db": 1976,
        "internet_penetration_percentage": 0.8170000000000001
      },
      {
        "location": [38.950631, -77.364541],
        "state": "VA",
        "org_name": "CoreSite LLC",
        "port_capacity": 1000,
        "isp_type_in_peering_db": "fac",
        "name": "CoreSite - Reston (VA1)",
        "isp_id_in_peering_db": 668,
        "city": "Reston",
        "internet_penetration_percentage": 0.852
      },
      {
        "location": [41.501022, -81.684102],
        "port_capacity": 1000,
        "org_name": "DataBank, Ltd.",
        "state": "OH",
        "isp_type_in_peering_db": "fac",
        "isp_id_in_peering_db": 4291,
        "name": "DataBank Cleveland (CLE1)",
        "city": "Cleveland",
        "internet_penetration_percentage": 0.794
      },
      {
        "org_name": "Digital Realty",
        "name": "Digital Realty SFO (365 Main)",
        "state": "CA",
        "location": [37.788669, -122.390509],
        "port_capacity": 1000,
        "isp_id_in_peering_db": 23,
        "isp_type_in_peering_db": "fac",
        "city": "San Francisco",
        "internet_penetration_percentage": 0.838
      },
      {
        "name": "RagingWire CA1 - NTT",
        "location": [38.650318, -121.489184],
        "isp_id_in_peering_db": 1110,
        "state": "CA",
        "port_capacity": 1000,
        "city": "Sacramento",
        "org_name": "RagingWire Data Centers - NTT Communications",
        "isp_type_in_peering_db": "fac",
        "internet_penetration_percentage": 0.838
      },
      {
        "org_name": "QTS Realty Trust, Inc.",
        "port_capacity": 1000,
        "state": "GA",
        "isp_type_in_peering_db": "fac",
        "name": "QTS Atlanta-Metro (ATL1)",
        "location": [33.777526, -84.421036],
        "city": "Atlanta",
        "isp_id_in_peering_db": 581,
        "internet_penetration_percentage": 0.847
      },
      {
        "isp_id_in_peering_db": 1619,
        "name": "CoreSite - Santa Clara (SV4)",
        "state": "CA",
        "org_name": "CoreSite LLC",
        "port_capacity": 1000,
        "city": "Santa Clara",
        "isp_type_in_peering_db": "fac",
        "location": [37.376259, -121.970705],
        "internet_penetration_percentage": 0.838
      },
      {
        "name": "CoreSite - Los Angeles (LA2)",
        "city": "Los Angeles",
        "state": "CA",
        "org_name": "CoreSite LLC",
        "port_capacity": 1000,
        "location": [34.058096, -118.235357],
        "isp_type_in_peering_db": "fac",
        "isp_id_in_peering_db": 363,
        "internet_penetration_percentage": 0.838
      },
      {
        "city": "Boston",
        "port_capacity": 1000,
        "org_name": "Markley Group, LLC",
        "name": "Markley Group One Summer Street Boston",
        "isp_type_in_peering_db": "fac",
        "isp_id_in_peering_db": 219,
        "state": "MA",
        "location": [42.354692, -71.060266],
        "internet_penetration_percentage": 0.784
      },
      {
        "city": "Chicago",
        "org_name": "QTS Realty Trust, Inc.",
        "port_capacity": 1000,
        "name": "QTS Chicago (CHI1)",
        "location": [41.841895, -87.668306],
        "isp_type_in_peering_db": "fac",
        "state": "IL",
        "isp_id_in_peering_db": 3362,
        "internet_penetration_percentage": 0.865
      },
      {
        "location": [45.55717, -122.927173],
        "org_name": "QTS Realty Trust, Inc.",
        "state": "OR",
        "port_capacity": 1000,
        "city": "HIllsboro",
        "isp_id_in_peering_db": 7872,
        "isp_type_in_peering_db": "fac",
        "name": "QTS Hillsboro (HIL1)",
        "internet_penetration_percentage": 0.8740000000000001
      },
      {
        "name": "CoreSite - Denver (DE1)",
        "location": [39.745636, -104.995636],
        "org_name": "CoreSite LLC",
        "port_capacity": 1000,
        "state": "CO",
        "isp_type_in_peering_db": "fac",
        "isp_id_in_peering_db": 389,
        "city": "Denver",
        "internet_penetration_percentage": 0.795
      },
      {
        "org_name": "Digital Realty",
        "state": "CA",
        "port_capacity": 1000,
        "city": "Santa Clara",
        "name": "Digital Realty SJC (2820 NW Pkwy)",
        "isp_type_in_peering_db": "fac",
        "isp_id_in_peering_db": 469,
        "location": [37.372818, -121.973377],
        "internet_penetration_percentage": 0.838
      },
      {
        "location": [40.720873, -111.984927],
        "port_capacity": 1000,
        "org_name": "EdgeConneX",
        "city": "Salt Lake City",
        "name": "EdgeConneX Salt Lake City (EDCSLC01)",
        "state": "UT",
        "isp_id_in_peering_db": 2077,
        "isp_type_in_peering_db": "fac",
        "internet_penetration_percentage": 0.877
      },
      {
        "state": "CA",
        "name": "Equinix SV1/SV5/SV10 - Silicon Valley, San Jose",
        "port_capacity": 1000,
        "city": "San Jose",
        "isp_type_in_peering_db": "fac",
        "location": [37.241767, -121.782967],
        "org_name": "Equinix",
        "isp_id_in_peering_db": 6,
        "internet_penetration_percentage": 0.838
      },
      {
        "city": "Chicago",
        "org_name": "Equinix",
        "port_capacity": 1000,
        "location": [41.85365, -87.618342],
        "isp_id_in_peering_db": 7,
        "isp_type_in_peering_db": "fac",
        "name": "Equinix CH1/CH2/CH4 - Chicago",
        "state": "IL",
        "internet_penetration_percentage": 0.865
      },
      {
        "isp_id_in_peering_db": 575,
        "city": "Omaha",
        "location": [41.257352, -95.938191],
        "port_capacity": 1000,
        "isp_type_in_peering_db": "fac",
        "state": "NE",
        "org_name": "1623 Farnam, LLC",
        "name": "1623 Farnam",
        "internet_penetration_percentage": 0.831
      },
      {
        "city": "Seattle",
        "location": [47.614347, -122.338883],
        "port_capacity": 1000,
        "org_name": "The Westin Building",
        "isp_id_in_peering_db": 71,
        "isp_type_in_peering_db": "fac",
        "name": "Westin Building Seattle",
        "state": "WA",
        "internet_penetration_percentage": 0.885
      },
      {
        "name": "LightBound IND1",
        "location": [39.759366, -86.171857],
        "city": "Indianapolis",
        "port_capacity": 1000,
        "state": "IN",
        "isp_type_in_peering_db": "fac",
        "org_name": "LightBound",
        "isp_id_in_peering_db": 446,
        "internet_penetration_percentage": 0.815
      },
      {
        "state": "VA",
        "org_name": "EvoSwitch",
        "isp_id_in_peering_db": 1348,
        "city": "Manassas",
        "port_capacity": 1000,
        "isp_type_in_peering_db": "fac",
        "name": "EvoSwitch WDC1",
        "location": [38.747494, -77.531749],
        "internet_penetration_percentage": 0.852
      },
      {
        "state": "AZ",
        "city": "Tempe",
        "isp_id_in_peering_db": 1917,
        "port_capacity": 1000,
        "org_name": "EdgeConneX",
        "isp_type_in_peering_db": "fac",
        "name": "EdgeConneX Phoenix (EDCPHX01)",
        "location": [33.395544, -111.97012],
        "internet_penetration_percentage": 0.8390000000000001
      },
      {
        "name": "EdgeConneX Portland (EDCPOR01)",
        "state": "OR",
        "port_capacity": 1000,
        "org_name": "EdgeConneX",
        "city": "Hillsboro",
        "isp_type_in_peering_db": "fac",
        "isp_id_in_peering_db": 1922,
        "location": [45.548296, -122.907473],
        "internet_penetration_percentage": 0.8740000000000001
      },
      {
        "location": [44.878844, -93.404156],
        "city": "Eden Prairie",
        "port_capacity": 1000,
        "org_name": "EdgeConneX",
        "isp_id_in_peering_db": 2601,
        "isp_type_in_peering_db": "fac",
        "name": "EdgeConneX Minneapolis (EDCMSP01)",
        "state": "MN",
        "internet_penetration_percentage": 0.856
      },
      {
        "location": [42.528505, -71.249495],
        "port_capacity": 1000,
        "org_name": "EdgeConneX",
        "isp_type_in_peering_db": "fac",
        "name": "EdgeConneX Boston (EDCBOS01)",
        "isp_id_in_peering_db": 2073,
        "city": "Billerica",
        "state": "MA",
        "internet_penetration_percentage": 0.784
      },
      {
        "city": "Newark",
        "location": [40.736844, -74.173402],
        "port_capacity": 1000,
        "state": "NJ",
        "isp_type_in_peering_db": "fac",
        "org_name": "Equinix",
        "isp_id_in_peering_db": 9,
        "name": "Equinix NY1 - New York, Newark",
        "internet_penetration_percentage": 0.8240000000000001
      },
      {
        "location": [47.614358, -122.338864],
        "city": "Seattle",
        "port_capacity": 1000,
        "name": "Equinix SE2/SE3 - Seattle",
        "isp_type_in_peering_db": "fac",
        "org_name": "Equinix",
        "state": "WA",
        "isp_id_in_peering_db": 86,
        "internet_penetration_percentage": 0.885
      },
      {
        "org_name": "Digital Realty",
        "name": "Digital Realty ATL (56 Marietta)",
        "port_capacity": 1000,
        "location": [33.755456, -84.39153],
        "state": "GA",
        "isp_type_in_peering_db": "fac",
        "isp_id_in_peering_db": 125,
        "city": "Atlanta",
        "internet_penetration_percentage": 0.847
      },
      {
        "name": "Equinix MI3 - Miami, Boca Raton",
        "isp_id_in_peering_db": 1271,
        "port_capacity": 1000,
        "city": "Boca Raton",
        "isp_type_in_peering_db": "fac",
        "org_name": "Equinix",
        "location": [26.387989, -80.108267],
        "state": "FL",
        "internet_penetration_percentage": 0.8420000000000001
      },
      {
        "isp_id_in_peering_db": 2,
        "org_name": "Digital Realty",
        "location": [37.723407, -122.397923],
        "state": "CA",
        "port_capacity": 1000,
        "name": "Digital Realty SFO (200 Paul)",
        "isp_type_in_peering_db": "fac",
        "city": "San Francisco",
        "internet_penetration_percentage": 0.838
      },
      {
        "org_name": "Digital Realty",
        "state": "NY",
        "port_capacity": 1000,
        "isp_type_in_peering_db": "fac",
        "isp_id_in_peering_db": 16,
        "city": "New York",
        "name": "Digital Realty NYC (111 8th Ave)",
        "location": [40.741355, -74.003203],
        "internet_penetration_percentage": 0.802
      },
      {
        "org_name": "Alco Properties",
        "city": "Portland",
        "isp_id_in_peering_db": 275,
        "name": "The Pittock",
        "state": "OR",
        "port_capacity": 1000,
        "isp_type_in_peering_db": "fac",
        "location": [45.521366, -122.680792],
        "internet_penetration_percentage": 0.8740000000000001
      },
      {
        "org_name": "The Wilson Company",
        "isp_id_in_peering_db": 420,
        "location": [27.949606, -82.458393],
        "name": "The Franklin Exchange Tampa",
        "city": "Tampa",
        "port_capacity": 1000,
        "isp_type_in_peering_db": "fac",
        "state": "FL",
        "internet_penetration_percentage": 0.8420000000000001
      },
      {
        "org_name": "QTS Realty Trust, Inc.",
        "port_capacity": 1000,
        "isp_id_in_peering_db": 582,
        "location": [25.791541, -80.379598],
        "isp_type_in_peering_db": "fac",
        "name": "QTS Miami (MIA1)",
        "city": "Miami",
        "state": "FL",
        "internet_penetration_percentage": 0.8420000000000001
      },
      {
        "state": "TX",
        "location": [32.800955, -96.81955],
        "city": "Dallas",
        "port_capacity": 1000,
        "isp_id_in_peering_db": 4,
        "name": "Equinix DA1 - Dallas",
        "isp_type_in_peering_db": "fac",
        "org_name": "Equinix",
        "internet_penetration_percentage": 0.8170000000000001
      },
      {
        "org_name": "Netrality Data Centers",
        "name": "Netrality Kansas City - 1102 Grand",
        "isp_id_in_peering_db": 435,
        "port_capacity": 1000,
        "location": [39.100941, -94.581036],
        "city": "Kansas City",
        "state": "MO",
        "isp_type_in_peering_db": "fac",
        "internet_penetration_percentage": 0.833
      },
      {
        "state": "CA",
        "port_capacity": 1000,
        "location": [37.372595, -121.973508],
        "org_name": "Vantage Data Centers",
        "city": "Santa Clara",
        "isp_type_in_peering_db": "fac",
        "name": "Vantage Data Centers",
        "isp_id_in_peering_db": 1102,
        "internet_penetration_percentage": 0.838
      },
      {
        "state": "CA",
        "port_capacity": 1000,
        "name": "EdgeConneX Santa Clara (EDCSVC01) ",
        "org_name": "EdgeConneX",
        "isp_id_in_peering_db": 2427,
        "city": "Santa Clara",
        "isp_type_in_peering_db": "fac",
        "location": [37.364196, -121.958867],
        "internet_penetration_percentage": 0.838
      },
      {
        "isp_id_in_peering_db": 2365,
        "location": [37.488073, -77.244177],
        "state": "VA",
        "city": "Sandston",
        "org_name": "QTS Realty Trust, Inc.",
        "port_capacity": 1000,
        "name": "QTS Richmond (RIC1)",
        "isp_type_in_peering_db": "fac",
        "internet_penetration_percentage": 0.852
      },
      {
        "state": "AZ",
        "org_name": "CyrusOne",
        "location": [33.270744, -111.882056],
        "port_capacity": 1000,
        "isp_type_in_peering_db": "fac",
        "city": "Phoenix",
        "name": "CyrusOne Phoenix",
        "isp_id_in_peering_db": 1488,
        "internet_penetration_percentage": 0.8390000000000001
      },
      {
        "name": "Equinix SV8 - Silicon Valley, Palo Alto",
        "city": "Palo Alto",
        "isp_id_in_peering_db": 5,
        "state": "CA",
        "port_capacity": 1000,
        "isp_type_in_peering_db": "fac",
        "location": [37.445896, -122.160775],
        "org_name": "Equinix",
        "internet_penetration_percentage": 0.838
      },
      {
        "city": "Secaucus",
        "port_capacity": 1000,
        "state": "NJ",
        "isp_id_in_peering_db": 36,
        "name": "Equinix NY2/NY4/NY5/NY6 - New York, Secaucus",
        "isp_type_in_peering_db": "fac",
        "org_name": "Equinix",
        "location": [40.778534, -74.072237],
        "internet_penetration_percentage": 0.8240000000000001
      },
      {
        "isp_id_in_peering_db": 8,
        "city": "Los Angeles",
        "state": "CA",
        "port_capacity": 1000,
        "location": [34.047501, -118.2573],
        "isp_type_in_peering_db": "fac",
        "org_name": "Equinix",
        "name": "Equinix LA1 - Los Angeles",
        "internet_penetration_percentage": 0.838
      },
      {
        "state": "VA",
        "port_capacity": 1000,
        "isp_id_in_peering_db": 1,
        "city": "Ashburn",
        "isp_type_in_peering_db": "fac",
        "org_name": "Equinix",
        "name": "Equinix DC1-DC15 - Ashburn",
        "location": [39.016363, -77.459023],
        "internet_penetration_percentage": 0.852
      },
      {
        "port_capacity": 1000,
        "name": "DataBank Salt Lake City (SLC2)",
        "state": "UT",
        "org_name": "DataBank, Ltd.",
        "city": "Bluffdale",
        "isp_type_in_peering_db": "fac",
        "isp_id_in_peering_db": 4294,
        "location": [40.480032, -111.904533],
        "internet_penetration_percentage": 0.877
      },
      {
        "isp_id_in_peering_db": 940,
        "port_capacity": 1000,
        "state": "GA",
        "location": [33.758567, -84.387874],
        "name": "Equinix AT1 - Atlanta",
        "isp_type_in_peering_db": "fac",
        "org_name": "Equinix",
        "city": "Atlanta",
        "internet_penetration_percentage": 0.847
      },
      {
        "state": "TX",
        "org_name": "Digital Realty",
        "city": "Dallas",
        "name": "Digital Realty DFW (2323 Bryan St)",
        "port_capacity": 1000,
        "isp_id_in_peering_db": 402,
        "isp_type_in_peering_db": "fac",
        "location": [32.787212, -96.794219],
        "internet_penetration_percentage": 0.8170000000000001
      },
      {
        "state": "TX",
        "name": "CyrusOne Dallas (Carrollton)",
        "org_name": "CyrusOne",
        "port_capacity": 1000,
        "city": "Carrollton",
        "isp_type_in_peering_db": "fac",
        "location": [32.991929, -96.930465],
        "isp_id_in_peering_db": 1481,
        "internet_penetration_percentage": 0.8170000000000001
      },
      {
        "location": [27.949981, -82.458383],
        "city": "Tampa",
        "port_capacity": 1000,
        "org_name": "365 Data Centers",
        "name": "365 Data Centers Tampa (TA1)",
        "isp_type_in_peering_db": "fac",
        "isp_id_in_peering_db": 2086,
        "state": "FL",
        "internet_penetration_percentage": 0.8420000000000001
      },
      {
        "isp_id_in_peering_db": 6090,
        "name": "COPT DC-6",
        "org_name": "COPT DATA MANAGEMENT, LLC",
        "city": "Manassas",
        "port_capacity": 1000,
        "isp_type_in_peering_db": "fac",
        "location": [38.747494, -77.531749],
        "state": "MD",
        "internet_penetration_percentage": 0.84
      },
      {
        "state": "TX",
        "org_name": "Netrality Data Centers",
        "isp_id_in_peering_db": 409,
        "port_capacity": 1000,
        "name": "Netrality Houston - 1301 Fannin",
        "isp_type_in_peering_db": "fac",
        "location": [29.753242, -95.365882],
        "city": "Houston",
        "internet_penetration_percentage": 0.8170000000000001
      },
      {
        "state": "NY",
        "location": [42.91411, -78.887676],
        "port_capacity": 1000,
        "isp_id_in_peering_db": 2087,
        "name": "365 Data Centers Buffalo (BU1)",
        "org_name": "365 Data Centers",
        "isp_type_in_peering_db": "fac",
        "city": "Buffalo",
        "internet_penetration_percentage": 0.802
      },
      {
        "city": "Chicago",
        "org_name": "CoreSite LLC",
        "port_capacity": 1000,
        "location": [41.876212, -87.631453],
        "name": "CoreSite - Chicago (CH1)",
        "isp_type_in_peering_db": "fac",
        "isp_id_in_peering_db": 440,
        "state": "IL",
        "internet_penetration_percentage": 0.865
      },
      {
        "location": [32.778287, -96.7984],
        "state": "TX",
        "city": "Dallas",
        "port_capacity": 1000,
        "org_name": "DataBank, Ltd.",
        "isp_type_in_peering_db": "fac",
        "isp_id_in_peering_db": 4284,
        "name": "DataBank Dallas (DFW1)",
        "internet_penetration_percentage": 0.8170000000000001
      },
      {
        "org_name": "Digital Realty",
        "state": "NY",
        "name": "Digital Realty NYC (60 Hudson)",
        "port_capacity": 1000,
        "location": [40.717723, -74.008299],
        "isp_id_in_peering_db": 10,
        "isp_type_in_peering_db": "fac",
        "city": "New York",
        "internet_penetration_percentage": 0.802
      },
      {
        "state": "TX",
        "city": "San Antonio",
        "location": [29.429369, -98.486791],
        "port_capacity": 1000,
        "name": "H5 Data Centers San Antonio",
        "isp_id_in_peering_db": 6011,
        "org_name": "H5 Data Centers",
        "isp_type_in_peering_db": "fac",
        "internet_penetration_percentage": 0.8170000000000001
      },
      {
        "org_name": "Netrality Data Centers",
        "location": [38.625536, -90.195238],
        "port_capacity": 1000,
        "isp_id_in_peering_db": 332,
        "state": "MO",
        "isp_type_in_peering_db": "fac",
        "name": "Netrality St. Louis - 900 Walnut",
        "city": "St. Louis",
        "internet_penetration_percentage": 0.833
      },
      {
        "org_name": "Digital Realty",
        "location": [35.221885, -80.835538],
        "port_capacity": 1000,
        "city": "Charlotte",
        "isp_type_in_peering_db": "fac",
        "isp_id_in_peering_db": 4770,
        "state": "NC",
        "name": "Digital Realty CLT (113 N Myers St)",
        "internet_penetration_percentage": 0.8140000000000001
      },
      {
        "state": "AZ",
        "org_name": "Iron Mountain Data Centers",
        "port_capacity": 1000,
        "location": [33.454411, -111.976435],
        "city": "Phoenix",
        "isp_type_in_peering_db": "fac",
        "name": "Iron Mountain Data Center - Phoenix (AZP-1)",
        "isp_id_in_peering_db": 572,
        "internet_penetration_percentage": 0.8390000000000001
      },
      {
        "state": "TX",
        "city": "Laredo",
        "port_capacity": 1000,
        "org_name": "Laredo VTX",
        "isp_id_in_peering_db": 1977,
        "location": [27.50656, -99.501483],
        "isp_type_in_peering_db": "fac",
        "name": "Laredo VTX",
        "internet_penetration_percentage": 0.8170000000000001
      },
      {
        "name": "Equinix MI1 - Miami, NOTA",
        "isp_id_in_peering_db": 15,
        "location": [25.782648, -80.193157],
        "port_capacity": 1000,
        "isp_type_in_peering_db": "fac",
        "city": "Miami",
        "org_name": "Equinix",
        "state": "FL",
        "internet_penetration_percentage": 0.8420000000000001
      },
      {
        "location": [34.047942, -118.255564],
        "city": "Los Angeles",
        "state": "CA",
        "org_name": "CoreSite LLC",
        "port_capacity": 1000,
        "isp_type_in_peering_db": "fac",
        "name": "CoreSite - Los Angeles (LA1) One Wilshire",
        "isp_id_in_peering_db": 19,
        "internet_penetration_percentage": 0.838
      },
      {
        "org_name": "Netrality Data Centers",
        "name": "Netrality St. Louis - 210 N Tucker",
        "isp_id_in_peering_db": 1978,
        "location": [38.629332, -90.197305],
        "port_capacity": 1000,
        "state": "MO",
        "isp_type_in_peering_db": "fac",
        "city": "St. Louis",
        "internet_penetration_percentage": 0.833
      },
      {
        "location": [33.41601, -112.009445],
        "org_name": "PhoenixNAP",
        "port_capacity": 1000,
        "isp_id_in_peering_db": 917,
        "state": "AZ",
        "name": "PhoenixNAP",
        "isp_type_in_peering_db": "fac",
        "city": "Phoenix",
        "internet_penetration_percentage": 0.8390000000000001
      },
      {
        "state": "CA",
        "org_name": "CoreSite LLC",
        "port_capacity": 1000,
        "location": [37.334147, -121.891649],
        "city": "San Jose",
        "isp_id_in_peering_db": 20,
        "isp_type_in_peering_db": "fac",
        "name": "CoreSite - San Jose (SV1)",
        "internet_penetration_percentage": 0.838
      },
      {
        "name": "DataBank Salt Lake City (SLC1)",
        "location": [40.768519, -111.885833],
        "isp_id_in_peering_db": 4293,
        "port_capacity": 1000,
        "org_name": "DataBank, Ltd.",
        "state": "UT",
        "city": "Salt Lake City",
        "isp_type_in_peering_db": "fac",
        "internet_penetration_percentage": 0.877
      },
      {
        "state": "DC",
        "org_name": "CoreSite LLC",
        "location": [38.902918, -77.029149],
        "port_capacity": 1000,
        "city": "Washington",
        "isp_type_in_peering_db": "fac",
        "isp_id_in_peering_db": 286,
        "name": "CoreSite - Washington,DC (DC1)",
        "internet_penetration_percentage": 0.841
      },
      {
        "port_capacity": 1000,
        "state": "GA",
        "org_name": "EdgeConneX",
        "isp_type_in_peering_db": "fac",
        "isp_id_in_peering_db": 1929,
        "name": "EdgeConneX Atlanta (EDCATL01)",
        "city": "Atlanta",
        "location": [33.729369, -84.420099],
        "internet_penetration_percentage": 0.847
      },
      {
        "state": "PA",
        "name": "DataBank Pittsburgh (PIT1)",
        "port_capacity": 1000,
        "isp_id_in_peering_db": 4292,
        "org_name": "DataBank, Ltd.",
        "city": "Pittsburgh",
        "isp_type_in_peering_db": "fac",
        "location": [40.451062, -80.005186],
        "internet_penetration_percentage": 0.782
      },
      {
        "name": "CoreSite - Santa Clara (SV3)",
        "state": "CA",
        "org_name": "CoreSite LLC",
        "port_capacity": 1000,
        "isp_id_in_peering_db": 2762,
        "location": [37.374919, -121.970216],
        "city": "Santa Clara",
        "isp_type_in_peering_db": "fac",
        "internet_penetration_percentage": 0.838
      },
      {
        "org_name": "Iron Mountain Data Centers",
        "name": "Iron Mountain Data Center - New Jersey (NJE-1)",
        "isp_id_in_peering_db": 2011,
        "port_capacity": 1000,
        "state": "NJ",
        "location": [40.520803, -74.347184],
        "isp_type_in_peering_db": "fac",
        "city": "Edison",
        "internet_penetration_percentage": 0.8240000000000001
      },
      {
        "city": "Nashville",
        "isp_id_in_peering_db": 561,
        "location": [36.162626, -86.778674],
        "name": "365 Data Centers Nashville (NA1)",
        "port_capacity": 1000,
        "state": "TN",
        "org_name": "365 Data Centers",
        "isp_type_in_peering_db": "fac",
        "internet_penetration_percentage": 0.782
      },
      {
        "location": [42.469879, -83.259651],
        "state": "MI",
        "name": "365 Data Centers Detroit (DT1)",
        "port_capacity": 1000,
        "city": "Southfield",
        "org_name": "365 Data Centers",
        "isp_type_in_peering_db": "fac",
        "isp_id_in_peering_db": 2021,
        "internet_penetration_percentage": 0.812
      }
    ],
    "prefixes": 567522,
    "total_prefixes_in_globe": 7995542,
    "address_space": 1723016667,
    "total_addresses_in_globe": 19498300372,
    "neighbor": 1950,
    "info_type": "transit"
  }
}
