{
  "data": {
    "name": "COGENT-174",
    "traffic_ratio": "NOT DISCLOSED",
    "pop_list": [
      {
        "org_name": "Liberty Center One",
        "state": "MI",
        "name": "Liberty Center One",
        "location": [42.533508, -83.177393],
        "port_capacity": 1000,
        "isp_id_in_peering_db": 6937,
        "isp_type_in_peering_db": "fac",
        "city": "Royal Oak",
        "internet_penetration_percentage": 0.812
      },
      {
        "location": [38.950631, -77.364541],
        "state": "VA",
        "org_name": "CoreSite LLC",
        "port_capacity": 1000,
        "isp_type_in_peering_db": "fac",
        "name": "CoreSite - Reston (VA1)",
        "isp_id_in_peering_db": 668,
        "city": "Reston",
        "internet_penetration_percentage": 0.852
      },
      {
        "org_name": "Digital Realty",
        "isp_id_in_peering_db": 1744,
        "port_capacity": 1000,
        "city": "Needham",
        "isp_type_in_peering_db": "fac",
        "location": [42.302248, -71.21957],
        "name": "Digital Realty BOS (105 Cabot)",
        "state": "MA",
        "internet_penetration_percentage": 0.784
      },
      {
        "location": [39.587739, -104.864707],
        "port_capacity": 1000,
        "state": "CO",
        "isp_id_in_peering_db": 4443,
        "city": "Englewood",
        "isp_type_in_peering_db": "fac",
        "org_name": "Equinix",
        "name": "Equinix DE1 - Denver",
        "internet_penetration_percentage": 0.795
      },
      {
        "org_name": "vXchnge",
        "city": "Secaucus",
        "port_capacity": 1000,
        "isp_id_in_peering_db": 3919,
        "state": "NJ",
        "isp_type_in_peering_db": "fac",
        "location": [40.784817, -74.076264],
        "name": "vXchnge Secaucus (NJ01)",
        "internet_penetration_percentage": 0.8240000000000001
      },
      {
        "org_name": "QTS Realty Trust, Inc.",
        "port_capacity": 1000,
        "state": "GA",
        "isp_type_in_peering_db": "fac",
        "name": "QTS Atlanta-Metro (ATL1)",
        "location": [33.777526, -84.421036],
        "city": "Atlanta",
        "isp_id_in_peering_db": 581,
        "internet_penetration_percentage": 0.847
      },
      {
        "location": [32.800933, -96.819534],
        "state": "TX",
        "name": "Equinix DA6 - Dallas",
        "isp_id_in_peering_db": 2261,
        "city": "Dallas",
        "port_capacity": 1000,
        "isp_type_in_peering_db": "fac",
        "org_name": "Equinix",
        "internet_penetration_percentage": 0.8170000000000001
      },
      {
        "state": "TX",
        "city": "Irving",
        "org_name": "QTS Realty Trust, Inc.",
        "port_capacity": 1000,
        "isp_id_in_peering_db": 3363,
        "name": "QTS Irving - Dallas (DFW1)",
        "isp_type_in_peering_db": "fac",
        "location": [32.89709, -96.982993],
        "internet_penetration_percentage": 0.8170000000000001
      },
      {
        "city": "Chicago",
        "org_name": "QTS Realty Trust, Inc.",
        "port_capacity": 1000,
        "name": "QTS Chicago (CHI1)",
        "location": [41.841895, -87.668306],
        "isp_type_in_peering_db": "fac",
        "state": "IL",
        "isp_id_in_peering_db": 3362,
        "internet_penetration_percentage": 0.865
      },
      {
        "isp_id_in_peering_db": 250,
        "city": "Chicago",
        "name": "Level(3) Chicago Canal",
        "location": [41.880436, -87.639611],
        "org_name": "Level 3 Communications, LLC",
        "port_capacity": 1000,
        "isp_type_in_peering_db": "fac",
        "state": "IL",
        "internet_penetration_percentage": 0.865
      },
      {
        "name": "CoreSite - Denver (DE1)",
        "location": [39.745636, -104.995636],
        "org_name": "CoreSite LLC",
        "port_capacity": 1000,
        "state": "CO",
        "isp_type_in_peering_db": "fac",
        "isp_id_in_peering_db": 389,
        "city": "Denver",
        "internet_penetration_percentage": 0.795
      },
      {
        "location": [35.088555, -106.652284],
        "port_capacity": 1000,
        "isp_id_in_peering_db": 5092,
        "state": "NM",
        "org_name": "H5 Data Centers",
        "isp_type_in_peering_db": "fac",
        "name": "H5 Data Centers Albuquerque",
        "city": "Albuquerque",
        "internet_penetration_percentage": 0.833
      },
      {
        "city": "Chicago",
        "org_name": "Equinix",
        "port_capacity": 1000,
        "location": [41.85365, -87.618342],
        "isp_id_in_peering_db": 7,
        "isp_type_in_peering_db": "fac",
        "name": "Equinix CH1/CH2/CH4 - Chicago",
        "state": "IL",
        "internet_penetration_percentage": 0.865
      },
      {
        "location": [33.137525, -96.657906],
        "state": "TX",
        "port_capacity": 1000,
        "isp_id_in_peering_db": 4372,
        "isp_type_in_peering_db": "fac",
        "name": "TierPoint Allen TX",
        "org_name": "TierPoint, LLC",
        "city": "Allen",
        "internet_penetration_percentage": 0.8170000000000001
      },
      {
        "port_capacity": 1000,
        "state": "CO",
        "isp_type_in_peering_db": "fac",
        "location": [39.594144, -104.843142],
        "isp_id_in_peering_db": 2449,
        "org_name": "Flexential Corp.",
        "city": "Centennial",
        "name": "Flexential - Denver/Centennial (DEN05)",
        "internet_penetration_percentage": 0.795
      },
      {
        "org_name": "Digital Realty",
        "name": "Digital Realty ATL (56 Marietta)",
        "port_capacity": 1000,
        "location": [33.755456, -84.39153],
        "state": "GA",
        "isp_type_in_peering_db": "fac",
        "isp_id_in_peering_db": 125,
        "city": "Atlanta",
        "internet_penetration_percentage": 0.847
      },
      {
        "state": "TX",
        "name": "TierPoint Dallas",
        "city": "Dallas",
        "location": [32.807982, -96.857362],
        "port_capacity": 1000,
        "isp_type_in_peering_db": "fac",
        "isp_id_in_peering_db": 4371,
        "org_name": "TierPoint, LLC",
        "internet_penetration_percentage": 0.8170000000000001
      },
      {
        "city": "Chicago",
        "org_name": "Cyxtera Technologies, Inc.",
        "port_capacity": 1000,
        "isp_id_in_peering_db": 2591,
        "location": [41.853701, -87.618252],
        "isp_type_in_peering_db": "fac",
        "state": "IL",
        "name": "Cyxtera Chicago (ORD1)",
        "internet_penetration_percentage": 0.865
      },
      {
        "city": "Plano",
        "state": "TX",
        "org_name": "T5 Data Centers",
        "port_capacity": 1000,
        "name": "T5 Dallas",
        "location": [33.064858, -96.810993],
        "isp_id_in_peering_db": 3716,
        "isp_type_in_peering_db": "fac",
        "internet_penetration_percentage": 0.8170000000000001
      },
      {
        "org_name": "Iron Mountain Data Centers",
        "name": "Iron Mountain Data Center - Ohio (OHS-1)",
        "city": "Miamisburg",
        "isp_id_in_peering_db": 2010,
        "port_capacity": 1000,
        "state": "OH",
        "location": [39.591022, -84.236411],
        "isp_type_in_peering_db": "fac",
        "internet_penetration_percentage": 0.794
      },
      {
        "org_name": "Iron Mountain Data Centers",
        "name": "Iron Mountain Data Center - Denver (DEN-1)",
        "port_capacity": 1000,
        "state": "CO",
        "location": [39.777353, -104.968212],
        "isp_id_in_peering_db": 1896,
        "isp_type_in_peering_db": "fac",
        "city": "Denver",
        "internet_penetration_percentage": 0.795
      },
      {
        "state": "TX",
        "location": [32.837967, -96.878307],
        "name": "Carrier-1 Dallas",
        "city": "Dallas",
        "org_name": "Carrier-1",
        "port_capacity": 1000,
        "isp_id_in_peering_db": 2861,
        "isp_type_in_peering_db": "fac",
        "internet_penetration_percentage": 0.8170000000000001
      },
      {
        "name": "Digital Realty CHI (2200 Busse Rd.)",
        "org_name": "Digital Realty",
        "isp_id_in_peering_db": 1384,
        "location": [41.994269, -87.962053],
        "port_capacity": 1000,
        "isp_type_in_peering_db": "fac",
        "state": "IL",
        "city": "Elk Grove Village",
        "internet_penetration_percentage": 0.865
      },
      {
        "org_name": "Cyxtera Technologies, Inc.",
        "location": [41.99209, -87.958015],
        "port_capacity": 1000,
        "name": "Cyxtera Chicago (ORD2)",
        "isp_type_in_peering_db": "fac",
        "state": "IL",
        "city": "Elk Grove Village",
        "isp_id_in_peering_db": 2593,
        "internet_penetration_percentage": 0.865
      },
      {
        "city": "Columbus",
        "port_capacity": 1000,
        "org_name": "Cologix, Inc.",
        "location": [40.116491, -83.001985],
        "state": "OH",
        "isp_type_in_peering_db": "fac",
        "name": "Cologix COL3",
        "isp_id_in_peering_db": 3313,
        "internet_penetration_percentage": 0.794
      },
      {
        "port_capacity": 1000,
        "city": "Baltimore",
        "isp_type_in_peering_db": "fac",
        "name": "TierPoint Baltimore",
        "isp_id_in_peering_db": 5342,
        "location": [39.27541, -76.625461],
        "org_name": "TierPoint, LLC",
        "state": "MD",
        "internet_penetration_percentage": 0.84
      },
      {
        "name": "Syringa Networks Boise",
        "location": [43.567545, -116.207057],
        "port_capacity": 1000,
        "isp_id_in_peering_db": 1152,
        "city": "Boise",
        "org_name": "Syringa Networks Boise",
        "isp_type_in_peering_db": "fac",
        "state": "ID",
        "internet_penetration_percentage": 0.8759999999999999
      },
      {
        "org_name": "SBA Edge, LLC",
        "city": "Chicago",
        "location": [41.875948, -88.248975],
        "name": "SBA Edge, LLC",
        "port_capacity": 1000,
        "isp_id_in_peering_db": 1727,
        "isp_type_in_peering_db": "fac",
        "state": "IL",
        "internet_penetration_percentage": 0.865
      },
      {
        "location": [35.09252, -106.653315],
        "port_capacity": 1000,
        "org_name": "OSO Grande Technologies, Inc",
        "state": "NM",
        "isp_id_in_peering_db": 8756,
        "name": "Oso Grande Technologies, Inc.",
        "isp_type_in_peering_db": "fac",
        "city": "Albuquerque",
        "internet_penetration_percentage": 0.833
      },
      {
        "isp_id_in_peering_db": 11,
        "port_capacity": 1000,
        "location": [33.755456, -84.39153],
        "state": "GA",
        "isp_type_in_peering_db": "fac",
        "name": "Equinix AT2/AT3 - Atlanta",
        "org_name": "Equinix",
        "city": "Atlanta",
        "internet_penetration_percentage": 0.847
      },
      {
        "location": [35.193762, -80.938485],
        "isp_id_in_peering_db": 1724,
        "name": "CLT2",
        "org_name": "LUMOS Networks, Inc.",
        "port_capacity": 1000,
        "city": "Charlotte",
        "isp_type_in_peering_db": "fac",
        "state": "NC",
        "internet_penetration_percentage": 0.8140000000000001
      },
      {
        "city": "Norcross",
        "location": [33.954763, -84.198645],
        "port_capacity": 1000,
        "state": "GA",
        "isp_type_in_peering_db": "fac",
        "isp_id_in_peering_db": 4995,
        "org_name": "Flexential Corp.",
        "name": "Flexential - Atlanta/Norcross (ATL01/02)",
        "internet_penetration_percentage": 0.847
      },
      {
        "isp_id_in_peering_db": 2377,
        "city": "Columbus",
        "port_capacity": 1000,
        "org_name": "Cologix, Inc.",
        "location": [40.116491, -83.001985],
        "state": "OH",
        "isp_type_in_peering_db": "fac",
        "name": "Cologix COL1",
        "internet_penetration_percentage": 0.794
      },
      {
        "state": "TX",
        "org_name": "CyrusOne",
        "isp_id_in_peering_db": 1483,
        "port_capacity": 1000,
        "name": "CyrusOne Austin (Met 2)",
        "isp_type_in_peering_db": "fac",
        "city": "Austin",
        "location": [30.205925, -97.69791],
        "internet_penetration_percentage": 0.8170000000000001
      },
      {
        "state": "TX",
        "org_name": "Netrality Data Centers",
        "isp_id_in_peering_db": 409,
        "port_capacity": 1000,
        "name": "Netrality Houston - 1301 Fannin",
        "isp_type_in_peering_db": "fac",
        "location": [29.753242, -95.365882],
        "city": "Houston",
        "internet_penetration_percentage": 0.8170000000000001
      },
      {
        "state": "NV",
        "port_capacity": 1000,
        "org_name": "EdgeConneX",
        "name": "EdgeConneX Las Vegas (EDCLAS01)",
        "isp_type_in_peering_db": "fac",
        "location": [36.065272, -115.130816],
        "city": "Las Vegas",
        "isp_id_in_peering_db": 1918,
        "internet_penetration_percentage": 0.875
      },
      {
        "city": "Piscataway",
        "name": "QTS Piscataway (PNJ1)",
        "org_name": "QTS Realty Trust, Inc.",
        "port_capacity": 1000,
        "state": "NJ",
        "location": [40.556905, -74.484735],
        "isp_id_in_peering_db": 1177,
        "isp_type_in_peering_db": "fac",
        "internet_penetration_percentage": 0.8240000000000001
      },
      {
        "isp_id_in_peering_db": 5434,
        "city": "Chicago",
        "name": "ServerFarm CH1 Chicago",
        "port_capacity": 1000,
        "org_name": "ServerFarm Realty",
        "isp_type_in_peering_db": "fac",
        "state": "IL",
        "location": [41.870905, -87.640153],
        "internet_penetration_percentage": 0.865
      },
      {
        "city": "Chicago",
        "port_capacity": 1000,
        "location": [41.876212, -87.631453],
        "org_name": "365 Data Centers",
        "isp_type_in_peering_db": "fac",
        "isp_id_in_peering_db": 283,
        "state": "IL",
        "name": "365 Data Centers Chicago (CH6)",
        "internet_penetration_percentage": 0.865
      },
      {
        "name": "vXchnge Minneapolis (MN01)",
        "org_name": "vXchnge",
        "port_capacity": 1000,
        "city": "Minneapolis",
        "isp_type_in_peering_db": "fac",
        "state": "MN",
        "location": [44.971385, -93.254494],
        "isp_id_in_peering_db": 3924,
        "internet_penetration_percentage": 0.856
      },
      {
        "isp_id_in_peering_db": 3071,
        "name": "H5 Data Centers Denver",
        "port_capacity": 1000,
        "state": "CO",
        "city": "Greenwood Village",
        "org_name": "H5 Data Centers",
        "isp_type_in_peering_db": "fac",
        "location": [39.618102, -104.891509],
        "internet_penetration_percentage": 0.795
      },
      {
        "location": [34.047942, -118.255564],
        "city": "Los Angeles",
        "state": "CA",
        "org_name": "CoreSite LLC",
        "port_capacity": 1000,
        "isp_type_in_peering_db": "fac",
        "name": "CoreSite - Los Angeles (LA1) One Wilshire",
        "isp_id_in_peering_db": 19,
        "internet_penetration_percentage": 0.838
      },
      {
        "port_capacity": 1000,
        "state": "GA",
        "org_name": "DataSite",
        "location": [33.925548, -84.481654],
        "isp_id_in_peering_db": 6638,
        "city": "Marietta",
        "isp_type_in_peering_db": "fac",
        "name": "DataSite Atlanta",
        "internet_penetration_percentage": 0.847
      },
      {
        "org_name": "Cyxtera Technologies, Inc.",
        "isp_id_in_peering_db": 4048,
        "location": [33.74424, -84.58259],
        "city": "Lithia Springs",
        "port_capacity": 1000,
        "state": "GA",
        "name": "Cyxtera Atlanta (ATL1)",
        "isp_type_in_peering_db": "fac",
        "internet_penetration_percentage": 0.847
      },
      {
        "city": "Plano",
        "state": "TX",
        "org_name": "Global IP Networks, Inc.",
        "port_capacity": 1000,
        "isp_id_in_peering_db": 2270,
        "name": "GIP Plano",
        "isp_type_in_peering_db": "fac",
        "location": [33.012213, -96.683109],
        "internet_penetration_percentage": 0.8170000000000001
      },
      {
        "city": "Suwanee",
        "isp_id_in_peering_db": 580,
        "org_name": "QTS Realty Trust, Inc.",
        "port_capacity": 1000,
        "name": "QTS Atlanta-Suwanee (SUW1)",
        "state": "GA",
        "location": [34.035431, -84.06101],
        "isp_type_in_peering_db": "fac",
        "internet_penetration_percentage": 0.847
      },
      {
        "isp_id_in_peering_db": 1229,
        "org_name": "CoreSite LLC",
        "port_capacity": 1000,
        "state": "CO",
        "location": [39.744922, -104.97913],
        "isp_type_in_peering_db": "fac",
        "name": "CoreSite - Denver (DE2)",
        "city": "Denver",
        "internet_penetration_percentage": 0.795
      },
      {
        "location": [30.342438, -97.697448],
        "state": "TX",
        "org_name": "vXchnge",
        "port_capacity": 1000,
        "name": "vXchnge Austin (TX01)",
        "isp_id_in_peering_db": 3922,
        "isp_type_in_peering_db": "fac",
        "city": "Austin",
        "internet_penetration_percentage": 0.8170000000000001
      },
      {
        "org_name": "Digital Realty",
        "location": [42.301316, -71.219029],
        "port_capacity": 1000,
        "isp_id_in_peering_db": 2251,
        "city": "Needham",
        "isp_type_in_peering_db": "fac",
        "name": "Digital Realty BOS (128 1st Ave)",
        "state": "MA",
        "internet_penetration_percentage": 0.784
      },
      {
        "location": [39.564112, -104.866554],
        "org_name": "Zayo Group",
        "name": "zColo Englewood - 393 Inverness Parkway",
        "port_capacity": 1000,
        "state": "CO",
        "isp_id_in_peering_db": 2977,
        "city": "Englewood",
        "isp_type_in_peering_db": "fac",
        "internet_penetration_percentage": 0.795
      },
      {
        "org_name": "910Telecom",
        "port_capacity": 1000,
        "state": "CO",
        "isp_type_in_peering_db": "fac",
        "location": [39.745604, -104.99567],
        "isp_id_in_peering_db": 2079,
        "name": "910Telecom Denver",
        "city": "Denver",
        "internet_penetration_percentage": 0.795
      },
      {
        "city": "San Diego",
        "location": [32.84049, -117.168374],
        "state": "CA",
        "port_capacity": 1000,
        "org_name": "EdgeConneX",
        "isp_type_in_peering_db": "fac",
        "name": "EdgeConneX San Diego (EDCSDG01)",
        "isp_id_in_peering_db": 1928,
        "internet_penetration_percentage": 0.838
      },
      {
        "name": "INAP Atlanta",
        "org_name": "INAP Holding LLC",
        "location": [33.761505, -84.39141],
        "isp_id_in_peering_db": 5890,
        "port_capacity": 1000,
        "state": "GA",
        "isp_type_in_peering_db": "fac",
        "city": "Atlanta",
        "internet_penetration_percentage": 0.847
      },
      {
        "name": "zColo Atlanta - 1100 White SW",
        "org_name": "Zayo Group",
        "port_capacity": 1000,
        "state": "GA",
        "location": [33.733895, -84.425712],
        "isp_type_in_peering_db": "fac",
        "city": "Atlanta",
        "isp_id_in_peering_db": 3853,
        "internet_penetration_percentage": 0.847
      },
      {
        "state": "NY",
        "isp_id_in_peering_db": 3926,
        "org_name": "vXchnge",
        "name": "vXchnge New York (NY01)",
        "port_capacity": 1000,
        "location": [40.704687, -74.01123],
        "isp_type_in_peering_db": "fac",
        "city": "New York",
        "internet_penetration_percentage": 0.802
      },
      {
        "location": [39.967631, -82.995434],
        "city": "Columbus",
        "isp_id_in_peering_db": 1828,
        "port_capacity": 1000,
        "name": "WOW! Business (Columbus Datacenter)",
        "state": "OH",
        "isp_type_in_peering_db": "fac",
        "org_name": "WOW!",
        "internet_penetration_percentage": 0.794
      },
      {
        "isp_id_in_peering_db": 3930,
        "state": "NY",
        "city": "Chappaqua",
        "org_name": "vXchnge",
        "port_capacity": 1000,
        "location": [41.180558, -73.755109],
        "name": "vXchnge Westchester (NY02)",
        "isp_type_in_peering_db": "fac",
        "internet_penetration_percentage": 0.802
      },
      {
        "state": "VA",
        "org_name": "EvoSwitch",
        "isp_id_in_peering_db": 1348,
        "city": "Manassas",
        "port_capacity": 1000,
        "isp_type_in_peering_db": "fac",
        "name": "EvoSwitch WDC1",
        "location": [38.747494, -77.531749],
        "internet_penetration_percentage": 0.852
      },
      {
        "state": "CA",
        "org_name": "QTS Realty Trust, Inc.",
        "location": [38.646407, -121.486335],
        "city": "Sacramento",
        "port_capacity": 1000,
        "isp_type_in_peering_db": "fac",
        "isp_id_in_peering_db": 3359,
        "name": "QTS Sacramento (SAC1)",
        "internet_penetration_percentage": 0.838
      },
      {
        "org_name": "Evoque Data Center Solutions",
        "name": "Evoque_CH1 - Lisle",
        "port_capacity": 1000,
        "city": "Lisle",
        "isp_type_in_peering_db": "fac",
        "isp_id_in_peering_db": 6676,
        "state": "IL",
        "location": [41.802407, -88.094656],
        "internet_penetration_percentage": 0.865
      },
      {
        "name": "Equinix MI3 - Miami, Boca Raton",
        "isp_id_in_peering_db": 1271,
        "port_capacity": 1000,
        "city": "Boca Raton",
        "isp_type_in_peering_db": "fac",
        "org_name": "Equinix",
        "location": [26.387989, -80.108267],
        "state": "FL",
        "internet_penetration_percentage": 0.8420000000000001
      },
      {
        "state": "TX",
        "city": "Dallas",
        "port_capacity": 1000,
        "name": "Equinix DA4 - Dallas",
        "isp_type_in_peering_db": "fac",
        "location": [32.787212, -96.794219],
        "org_name": "Equinix",
        "isp_id_in_peering_db": 539,
        "internet_penetration_percentage": 0.8170000000000001
      },
      {
        "org_name": "QTS Realty Trust, Inc.",
        "port_capacity": 1000,
        "isp_id_in_peering_db": 582,
        "location": [25.791541, -80.379598],
        "isp_type_in_peering_db": "fac",
        "name": "QTS Miami (MIA1)",
        "city": "Miami",
        "state": "FL",
        "internet_penetration_percentage": 0.8420000000000001
      },
      {
        "state": "TX",
        "location": [32.800955, -96.81955],
        "city": "Dallas",
        "port_capacity": 1000,
        "isp_id_in_peering_db": 4,
        "name": "Equinix DA1 - Dallas",
        "isp_type_in_peering_db": "fac",
        "org_name": "Equinix",
        "internet_penetration_percentage": 0.8170000000000001
      },
      {
        "state": "TX",
        "org_name": "CyrusOne",
        "city": "Lewisville",
        "port_capacity": 1000,
        "name": "CyrusOne Dallas (Lewisville)",
        "isp_type_in_peering_db": "fac",
        "isp_id_in_peering_db": 1478,
        "location": [33.001402, -96.99766],
        "internet_penetration_percentage": 0.8170000000000001
      },
      {
        "city": "West Chester",
        "location": [39.316449, -84.450172],
        "port_capacity": 1000,
        "state": "OH",
        "isp_type_in_peering_db": "fac",
        "org_name": "Flexential Corp.",
        "name": "Flexential - Cincinnati (CIN01/02)",
        "isp_id_in_peering_db": 2381,
        "internet_penetration_percentage": 0.794
      },
      {
        "state": "CA",
        "org_name": "QTS Realty Trust, Inc.",
        "port_capacity": 1000,
        "location": [37.394031, -121.978279],
        "city": "Santa Clara",
        "isp_type_in_peering_db": "fac",
        "name": "QTS Santa Clara (SJC1/SJC2)",
        "isp_id_in_peering_db": 578,
        "internet_penetration_percentage": 0.838
      },
      {
        "isp_id_in_peering_db": 2621,
        "org_name": "Cyxtera Technologies, Inc.",
        "port_capacity": 1000,
        "state": "CO",
        "city": "Highlands Ranch",
        "isp_type_in_peering_db": "fac",
        "location": [39.550215, -105.033374],
        "name": "Cyxtera Denver (DEN1)",
        "internet_penetration_percentage": 0.795
      },
      {
        "isp_id_in_peering_db": 2365,
        "location": [37.488073, -77.244177],
        "state": "VA",
        "city": "Sandston",
        "org_name": "QTS Realty Trust, Inc.",
        "port_capacity": 1000,
        "name": "QTS Richmond (RIC1)",
        "isp_type_in_peering_db": "fac",
        "internet_penetration_percentage": 0.852
      },
      {
        "state": "VA",
        "port_capacity": 1000,
        "isp_id_in_peering_db": 1,
        "city": "Ashburn",
        "isp_type_in_peering_db": "fac",
        "org_name": "Equinix",
        "name": "Equinix DC1-DC15 - Ashburn",
        "location": [39.016363, -77.459023],
        "internet_penetration_percentage": 0.852
      },
      {
        "org_name": "CyrusOne",
        "name": "CyrusOne Chicago (Lombard)",
        "port_capacity": 1000,
        "isp_id_in_peering_db": 1486,
        "location": [41.849175, -88.029567],
        "city": "Lombard",
        "isp_type_in_peering_db": "fac",
        "state": "IL",
        "internet_penetration_percentage": 0.865
      },
      {
        "state": "TX",
        "org_name": "Digital Realty",
        "city": "Dallas",
        "name": "Digital Realty DFW (2323 Bryan St)",
        "port_capacity": 1000,
        "isp_id_in_peering_db": 402,
        "isp_type_in_peering_db": "fac",
        "location": [32.787212, -96.794219],
        "internet_penetration_percentage": 0.8170000000000001
      },
      {
        "org_name": "ColoSpace, Inc.",
        "port_capacity": 1000,
        "location": [42.399882, -71.253131],
        "city": "Waltham",
        "isp_type_in_peering_db": "fac",
        "state": "MA",
        "isp_id_in_peering_db": 3458,
        "name": "ColoSpace - Waltham, MA",
        "internet_penetration_percentage": 0.784
      },
      {
        "state": "TX",
        "port_capacity": 1000,
        "isp_id_in_peering_db": 1720,
        "name": "Data Foundry Texas 1",
        "org_name": "Data Foundry, Inc.",
        "isp_type_in_peering_db": "fac",
        "city": "Austin",
        "location": [30.198926, -97.713716],
        "internet_penetration_percentage": 0.8170000000000001
      },
      {
        "isp_id_in_peering_db": 4999,
        "location": [35.329674, -80.766017],
        "port_capacity": 1000,
        "city": "Charlotte",
        "name": "Flexential - Charlotte/North (CLT04/05)",
        "isp_type_in_peering_db": "fac",
        "org_name": "Flexential Corp.",
        "state": "NC",
        "internet_penetration_percentage": 0.8140000000000001
      },
      {
        "location": [32.778287, -96.7984],
        "state": "TX",
        "city": "Dallas",
        "port_capacity": 1000,
        "org_name": "DataBank, Ltd.",
        "isp_type_in_peering_db": "fac",
        "isp_id_in_peering_db": 4284,
        "name": "DataBank Dallas (DFW1)",
        "internet_penetration_percentage": 0.8170000000000001
      },
      {
        "state": "TX",
        "org_name": "Zayo Group",
        "location": [32.800955, -96.81955],
        "name": "zColo Dallas - 1950 Stemmons Fwy",
        "city": "Dallas",
        "port_capacity": 1000,
        "isp_type_in_peering_db": "fac",
        "isp_id_in_peering_db": 2469,
        "internet_penetration_percentage": 0.8170000000000001
      },
      {
        "state": "TX",
        "name": "Cologix DAL1",
        "city": "Dallas",
        "port_capacity": 1000,
        "location": [32.800703, -96.81919],
        "org_name": "Cologix, Inc.",
        "isp_type_in_peering_db": "fac",
        "isp_id_in_peering_db": 2375,
        "internet_penetration_percentage": 0.8170000000000001
      },
      {
        "location": [37.365431, -121.961738],
        "org_name": "vXchnge",
        "state": "CA",
        "port_capacity": 1000,
        "city": "Santa Clara",
        "name": "vXchnge Santa Clara (CA01)",
        "isp_type_in_peering_db": "fac",
        "isp_id_in_peering_db": 3921,
        "internet_penetration_percentage": 0.838
      },
      {
        "org_name": "Digital Realty",
        "location": [35.221885, -80.835538],
        "port_capacity": 1000,
        "city": "Charlotte",
        "isp_type_in_peering_db": "fac",
        "isp_id_in_peering_db": 4770,
        "state": "NC",
        "name": "Digital Realty CLT (113 N Myers St)",
        "internet_penetration_percentage": 0.8140000000000001
      },
      {
        "name": "1500 Champa",
        "location": [39.745765, -104.994399],
        "port_capacity": 1000,
        "state": "CO",
        "isp_type_in_peering_db": "fac",
        "isp_id_in_peering_db": 1440,
        "org_name": "The Morgan Reed Group",
        "city": "Denver",
        "internet_penetration_percentage": 0.795
      },
      {
        "name": "Equinix MI1 - Miami, NOTA",
        "isp_id_in_peering_db": 15,
        "location": [25.782648, -80.193157],
        "port_capacity": 1000,
        "isp_type_in_peering_db": "fac",
        "city": "Miami",
        "org_name": "Equinix",
        "state": "FL",
        "internet_penetration_percentage": 0.8420000000000001
      },
      {
        "state": "MI",
        "location": [42.537158, -83.099861],
        "city": "Troy",
        "port_capacity": 1000,
        "isp_id_in_peering_db": 3498,
        "name": "ManagedWay TYM1",
        "isp_type_in_peering_db": "fac",
        "org_name": "ManagedWay Company",
        "internet_penetration_percentage": 0.812
      },
      {
        "location": [36.162621, -86.776316],
        "city": "Nashville",
        "org_name": "vXchnge",
        "port_capacity": 1000,
        "name": "vXchnge Nashville (TN01)",
        "state": "TN",
        "isp_id_in_peering_db": 3925,
        "isp_type_in_peering_db": "fac",
        "internet_penetration_percentage": 0.782
      },
      {
        "city": "Portland",
        "isp_id_in_peering_db": 3920,
        "org_name": "vXchnge",
        "state": "OR",
        "port_capacity": 1000,
        "location": [45.531851, -122.683964],
        "name": "vXchnge Portland (OR01)",
        "isp_type_in_peering_db": "fac",
        "internet_penetration_percentage": 0.8740000000000001
      },
      {
        "name": "vXchnge St. Louis (MO01)",
        "location": [38.632728, -90.195813],
        "org_name": "vXchnge",
        "port_capacity": 1000,
        "state": "MO",
        "isp_type_in_peering_db": "fac",
        "isp_id_in_peering_db": 3928,
        "city": "St. Louis",
        "internet_penetration_percentage": 0.833
      },
      {
        "city": "Philadelphia",
        "location": [39.962351, -75.163736],
        "state": "PA",
        "org_name": "vXchnge",
        "isp_id_in_peering_db": 2113,
        "port_capacity": 1000,
        "name": "vXchnge Philadelphia (PA01)",
        "isp_type_in_peering_db": "fac",
        "internet_penetration_percentage": 0.782
      },
      {
        "state": "TX",
        "location": [32.800955, -96.81955],
        "city": "Dallas",
        "port_capacity": 1000,
        "isp_id_in_peering_db": 2157,
        "name": "Flexential - Dallas/Downtown (DAL01)",
        "isp_type_in_peering_db": "fac",
        "org_name": "Flexential Corp.",
        "internet_penetration_percentage": 0.8170000000000001
      },
      {
        "state": "TX",
        "port_capacity": 1000,
        "location": [32.981068, -96.657798],
        "org_name": "RagingWire Data Centers - NTT Communications",
        "isp_type_in_peering_db": "fac",
        "name": "RagingWire TX1 - NTT",
        "city": "Garland",
        "isp_id_in_peering_db": 6554,
        "internet_penetration_percentage": 0.8170000000000001
      },
      {
        "org_name": "bigbyte.cc Corp",
        "isp_id_in_peering_db": 8736,
        "port_capacity": 1000,
        "name": "bigbyte.cc Nerissa Whittington",
        "isp_type_in_peering_db": "fac",
        "location": [35.084508, -106.648933],
        "city": "Albuquerque",
        "state": "NM",
        "internet_penetration_percentage": 0.833
      },
      {
        "state": "TX",
        "port_capacity": 1000,
        "name": "Flexential - Dallas/Richardson (RCH01)",
        "location": [32.993304, -96.756242],
        "isp_type_in_peering_db": "fac",
        "city": "Richardson",
        "org_name": "Flexential Corp.",
        "isp_id_in_peering_db": 2452,
        "internet_penetration_percentage": 0.8170000000000001
      },
      {
        "city": "McAllen",
        "state": "TX",
        "org_name": "MDC (McAllen Data Center)",
        "port_capacity": 1000,
        "name": "MDC McAllen",
        "isp_type_in_peering_db": "fac",
        "location": [26.201927, -98.231367],
        "isp_id_in_peering_db": 1976,
        "internet_penetration_percentage": 0.8170000000000001
      },
      {
        "org_name": "Digital Realty",
        "city": "Chicago",
        "port_capacity": 1000,
        "name": "Digital Realty CHI (350 E Cermak)",
        "location": [41.85365, -87.618342],
        "isp_type_in_peering_db": "fac",
        "isp_id_in_peering_db": 466,
        "state": "IL",
        "internet_penetration_percentage": 0.865
      },
      {
        "state": "MI",
        "isp_id_in_peering_db": 2084,
        "org_name": "123.Net, Inc.",
        "port_capacity": 1000,
        "city": "Southfield",
        "isp_type_in_peering_db": "fac",
        "location": [42.471634, -83.238056],
        "name": "123.NET - DC1 - 24700 Northwestern Hwy.",
        "internet_penetration_percentage": 0.812
      },
      {
        "name": "TierPoint Chicago-Polk",
        "isp_id_in_peering_db": 3014,
        "location": [41.871616, -87.642825],
        "city": "Chicago",
        "port_capacity": 1000,
        "isp_type_in_peering_db": "fac",
        "state": "IL",
        "org_name": "TierPoint, LLC",
        "internet_penetration_percentage": 0.865
      },
      {
        "name": "Equinix Dallas (previously Infomart Dallas)",
        "state": "TX",
        "city": "Dallas",
        "port_capacity": 1000,
        "location": [32.800703, -96.81919],
        "isp_id_in_peering_db": 505,
        "isp_type_in_peering_db": "fac",
        "org_name": "Equinix",
        "internet_penetration_percentage": 0.8170000000000001
      },
      {
        "state": "TX",
        "location": [32.800955, -96.81955],
        "city": "Dallas",
        "port_capacity": 1000,
        "isp_id_in_peering_db": 2578,
        "isp_type_in_peering_db": "fac",
        "name": "Equinix DA2 - Dallas",
        "org_name": "Equinix",
        "internet_penetration_percentage": 0.8170000000000001
      },
      {
        "location": [39.561073, -104.826671],
        "isp_id_in_peering_db": 1875,
        "port_capacity": 1000,
        "state": "CO",
        "org_name": "EdgeConneX",
        "city": "Englewood",
        "isp_type_in_peering_db": "fac",
        "name": "EdgeConneX Denver (EDCDEN01)",
        "internet_penetration_percentage": 0.795
      },
      {
        "location": [39.000373, -77.448809],
        "state": "VA",
        "org_name": "QTS Realty Trust, Inc.",
        "port_capacity": 1000,
        "city": "Sterling",
        "name": "QTS Ashburn (ASH1)",
        "isp_id_in_peering_db": 5150,
        "isp_type_in_peering_db": "fac",
        "internet_penetration_percentage": 0.852
      },
      {
        "city": "Cincinnati",
        "isp_id_in_peering_db": 3663,
        "name": "Immedion Downtown - Cincinnati, OH",
        "port_capacity": 1000,
        "state": "OH",
        "isp_type_in_peering_db": "fac",
        "org_name": "Immedion, LLC",
        "location": [39.098228, -84.517489],
        "internet_penetration_percentage": 0.794
      },
      {
        "state": "CA",
        "name": "Equinix SV1/SV5/SV10 - Silicon Valley, San Jose",
        "port_capacity": 1000,
        "city": "San Jose",
        "isp_type_in_peering_db": "fac",
        "location": [37.241767, -121.782967],
        "org_name": "Equinix",
        "isp_id_in_peering_db": 6,
        "internet_penetration_percentage": 0.838
      },
      {
        "state": "AZ",
        "city": "Tempe",
        "isp_id_in_peering_db": 1917,
        "port_capacity": 1000,
        "org_name": "EdgeConneX",
        "isp_type_in_peering_db": "fac",
        "name": "EdgeConneX Phoenix (EDCPHX01)",
        "location": [33.395544, -111.97012],
        "internet_penetration_percentage": 0.8390000000000001
      },
      {
        "city": "Jacksonville",
        "name": "EdgeConneX Jacksonville (EDCJAX01)",
        "port_capacity": 1000,
        "org_name": "EdgeConneX",
        "location": [30.254238, -81.604183],
        "isp_type_in_peering_db": "fac",
        "isp_id_in_peering_db": 2076,
        "state": "FL",
        "internet_penetration_percentage": 0.8420000000000001
      },
      {
        "state": "MA",
        "isp_id_in_peering_db": 281,
        "port_capacity": 1000,
        "location": [42.395346, -71.269187],
        "city": "Waltham",
        "name": "Equinix BO1 - Boston, Waltham",
        "isp_type_in_peering_db": "fac",
        "org_name": "Equinix",
        "internet_penetration_percentage": 0.784
      },
      {
        "state": "CA",
        "port_capacity": 1000,
        "name": "EdgeConneX Santa Clara (EDCSVC01) ",
        "org_name": "EdgeConneX",
        "isp_id_in_peering_db": 2427,
        "city": "Santa Clara",
        "isp_type_in_peering_db": "fac",
        "location": [37.364196, -121.958867],
        "internet_penetration_percentage": 0.838
      },
      {
        "location": [39.745119, -104.979669],
        "org_name": "Level 3 Communications, LLC",
        "state": "CO",
        "port_capacity": 1000,
        "isp_type_in_peering_db": "fac",
        "isp_id_in_peering_db": 1221,
        "city": "Denver",
        "name": "Level(3) Denver",
        "internet_penetration_percentage": 0.795
      },
      {
        "name": "vXchnge St. Paul (MN02)",
        "location": [44.972309, -93.147411],
        "city": "St. Paul",
        "org_name": "vXchnge",
        "port_capacity": 1000,
        "isp_type_in_peering_db": "fac",
        "state": "MN",
        "isp_id_in_peering_db": 3927,
        "internet_penetration_percentage": 0.856
      },
      {
        "name": "Equinix SV8 - Silicon Valley, Palo Alto",
        "city": "Palo Alto",
        "isp_id_in_peering_db": 5,
        "state": "CA",
        "port_capacity": 1000,
        "isp_type_in_peering_db": "fac",
        "location": [37.445896, -122.160775],
        "org_name": "Equinix",
        "internet_penetration_percentage": 0.838
      },
      {
        "org_name": "CyrusOne",
        "location": [39.103037, -84.517724],
        "city": "Cincinnati ",
        "name": "CyrusOne Cincinnati 7th St",
        "isp_id_in_peering_db": 1467,
        "port_capacity": 1000,
        "state": "OH",
        "isp_type_in_peering_db": "fac",
        "internet_penetration_percentage": 0.794
      },
      {
        "location": [39.291768, -76.620065],
        "port_capacity": 1000,
        "org_name": "AiNET",
        "city": "Baltimore",
        "isp_type_in_peering_db": "fac",
        "isp_id_in_peering_db": 6538,
        "name": "AiNET MD-300L",
        "state": "MD",
        "internet_penetration_percentage": 0.84
      },
      {
        "org_name": "Netrality Data Centers",
        "location": [41.872911, -87.63327],
        "city": "Chicago",
        "port_capacity": 1000,
        "isp_id_in_peering_db": 3398,
        "name": "Netrality Chicago - 717 S Wells",
        "isp_type_in_peering_db": "fac",
        "state": "IL",
        "internet_penetration_percentage": 0.865
      },
      {
        "isp_id_in_peering_db": 940,
        "port_capacity": 1000,
        "state": "GA",
        "location": [33.758567, -84.387874],
        "name": "Equinix AT1 - Atlanta",
        "isp_type_in_peering_db": "fac",
        "org_name": "Equinix",
        "city": "Atlanta",
        "internet_penetration_percentage": 0.847
      },
      {
        "state": "TX",
        "name": "CyrusOne Dallas (Carrollton)",
        "org_name": "CyrusOne",
        "port_capacity": 1000,
        "city": "Carrollton",
        "isp_type_in_peering_db": "fac",
        "location": [32.991929, -96.930465],
        "isp_id_in_peering_db": 1481,
        "internet_penetration_percentage": 0.8170000000000001
      },
      {
        "isp_id_in_peering_db": 2439,
        "port_capacity": 1000,
        "state": "CO",
        "location": [39.559047, -104.8386],
        "city": "Englewood",
        "isp_type_in_peering_db": "fac",
        "org_name": "Flexential Corp.",
        "name": "Flexential - Denver/Englewood (DEN11)",
        "internet_penetration_percentage": 0.795
      },
      {
        "state": "NY",
        "location": [42.91411, -78.887676],
        "port_capacity": 1000,
        "isp_id_in_peering_db": 2087,
        "name": "365 Data Centers Buffalo (BU1)",
        "org_name": "365 Data Centers",
        "isp_type_in_peering_db": "fac",
        "city": "Buffalo",
        "internet_penetration_percentage": 0.802
      },
      {
        "city": "Plano",
        "state": "TX",
        "isp_id_in_peering_db": 4286,
        "name": "DataBank Dallas (DFW3)",
        "port_capacity": 1000,
        "org_name": "DataBank, Ltd.",
        "location": [33.08846, -96.813905],
        "isp_type_in_peering_db": "fac",
        "internet_penetration_percentage": 0.8170000000000001
      },
      {
        "state": "TX",
        "org_name": "Zayo Group",
        "name": "zColo Dallas - 8600 HARRY HINES BLVD",
        "city": "Dallas",
        "port_capacity": 1000,
        "isp_type_in_peering_db": "fac",
        "location": [32.838568, -96.865152],
        "isp_id_in_peering_db": 1738,
        "internet_penetration_percentage": 0.8170000000000001
      },
      {
        "state": "PA",
        "org_name": "vXchnge",
        "name": "vXchnge Pittsburgh (PA02)",
        "location": [40.452053, -79.980564],
        "port_capacity": 1000,
        "city": "Pittsburgh",
        "isp_type_in_peering_db": "fac",
        "isp_id_in_peering_db": 3931,
        "internet_penetration_percentage": 0.782
      },
      {
        "isp_id_in_peering_db": 2924,
        "org_name": "Digital Realty",
        "city": "Chicago",
        "name": "Digital Realty CHI (600-780 S Federal)",
        "port_capacity": 1000,
        "isp_type_in_peering_db": "fac",
        "state": "IL",
        "location": [41.873187, -87.629908],
        "internet_penetration_percentage": 0.865
      },
      {
        "state": "TX",
        "org_name": "Digital Realty",
        "port_capacity": 1000,
        "isp_type_in_peering_db": "fac",
        "city": "Richardson",
        "isp_id_in_peering_db": 1382,
        "location": [32.966309, -96.715602],
        "name": "Digital Realty DFW (1232 Alma)",
        "internet_penetration_percentage": 0.8170000000000001
      },
      {
        "location": [40.716892, -74.03382],
        "org_name": "QTS Realty Trust, Inc.",
        "port_capacity": 1000,
        "city": "Jersey City",
        "state": "NJ",
        "isp_type_in_peering_db": "fac",
        "isp_id_in_peering_db": 579,
        "name": "QTS Jersey City (JCY1)",
        "internet_penetration_percentage": 0.8240000000000001
      },
      {
        "org_name": "Fidelity Voice and Data",
        "isp_id_in_peering_db": 1419,
        "port_capacity": 1000,
        "state": "OH",
        "isp_type_in_peering_db": "fac",
        "name": "Fidelity - Cleveland",
        "city": "Cleveland",
        "location": [41.501667, -81.680426],
        "internet_penetration_percentage": 0.794
      },
      {
        "city": "Aurora",
        "isp_id_in_peering_db": 2438,
        "port_capacity": 1000,
        "state": "CO",
        "name": "Flexential - Denver/Aurora (DEN03)",
        "location": [39.66107, -104.849813],
        "isp_type_in_peering_db": "fac",
        "org_name": "Flexential Corp.",
        "internet_penetration_percentage": 0.795
      },
      {
        "location": [42.001171, -87.954882],
        "port_capacity": 1000,
        "isp_id_in_peering_db": 968,
        "name": "Equinix CH3 - Elk Grove",
        "isp_type_in_peering_db": "fac",
        "state": "IL",
        "org_name": "Equinix",
        "city": "Elk Grove Village",
        "internet_penetration_percentage": 0.865
      },
      {
        "org_name": "NYI",
        "city": "Oak Brook",
        "port_capacity": 1000,
        "location": [41.845343, -87.941522],
        "isp_id_in_peering_db": 7525,
        "isp_type_in_peering_db": "fac",
        "name": "NYI CH1: 800 Jorie Blvd",
        "state": "IL",
        "internet_penetration_percentage": 0.865
      },
      {
        "name": "Flexential - Charlotte/South (CLT01/02/03)",
        "isp_id_in_peering_db": 4998,
        "port_capacity": 1000,
        "city": "Charlotte",
        "isp_type_in_peering_db": "fac",
        "location": [35.135366, -80.93693],
        "org_name": "Flexential Corp.",
        "state": "NC",
        "internet_penetration_percentage": 0.8140000000000001
      },
      {
        "location": [29.794579, -95.745149],
        "state": "TX",
        "city": "Katy",
        "port_capacity": 1000,
        "org_name": "EdgeConneX",
        "isp_id_in_peering_db": 1910,
        "isp_type_in_peering_db": "fac",
        "name": "EdgeConneX Houston (EDCHOU01)",
        "internet_penetration_percentage": 0.8170000000000001
      },
      {
        "location": [40.720873, -111.984927],
        "port_capacity": 1000,
        "org_name": "EdgeConneX",
        "city": "Salt Lake City",
        "name": "EdgeConneX Salt Lake City (EDCSLC01)",
        "state": "UT",
        "isp_id_in_peering_db": 2077,
        "isp_type_in_peering_db": "fac",
        "internet_penetration_percentage": 0.877
      },
      {
        "name": "CoreSite - Boston (BO1)",
        "org_name": "CoreSite LLC",
        "port_capacity": 1000,
        "location": [42.376703, -71.079763],
        "isp_type_in_peering_db": "fac",
        "city": "Somerville",
        "state": "MA",
        "isp_id_in_peering_db": 584,
        "internet_penetration_percentage": 0.784
      },
      {
        "name": "EdgeConneX Portland (EDCPOR01)",
        "state": "OR",
        "port_capacity": 1000,
        "org_name": "EdgeConneX",
        "city": "Hillsboro",
        "isp_type_in_peering_db": "fac",
        "isp_id_in_peering_db": 1922,
        "location": [45.548296, -122.907473],
        "internet_penetration_percentage": 0.8740000000000001
      },
      {
        "isp_id_in_peering_db": 4049,
        "org_name": "Cyxtera Technologies, Inc.",
        "port_capacity": 1000,
        "location": [42.396785, -71.267452],
        "city": "Waltham",
        "name": "Cyxtera Boston (BOS1)",
        "isp_type_in_peering_db": "fac",
        "state": "MA",
        "internet_penetration_percentage": 0.784
      },
      {
        "isp_id_in_peering_db": 1021,
        "state": "TX",
        "location": [32.807584, -96.86816],
        "city": "Dallas",
        "org_name": "Level 3 Communications, LLC",
        "port_capacity": 1000,
        "name": "Level(3) Dallas",
        "isp_type_in_peering_db": "fac",
        "internet_penetration_percentage": 0.8170000000000001
      },
      {
        "city": "Plano",
        "state": "TX",
        "isp_id_in_peering_db": 2579,
        "port_capacity": 1000,
        "location": [33.064858, -96.810993],
        "isp_type_in_peering_db": "fac",
        "org_name": "Equinix",
        "name": "Equinix DA7 - Dallas",
        "internet_penetration_percentage": 0.8170000000000001
      },
      {
        "isp_id_in_peering_db": 1927,
        "state": "MI",
        "name": "EdgeConneX Detroit (EDCDET01)",
        "port_capacity": 1000,
        "location": [42.448537, -83.261226],
        "city": "Southfield",
        "org_name": "EdgeConneX",
        "isp_type_in_peering_db": "fac",
        "internet_penetration_percentage": 0.812
      },
      {
        "isp_id_in_peering_db": 696,
        "location": [39.560317, -104.857528],
        "port_capacity": 1000,
        "name": "Equinix DE2 - Denver",
        "state": "CO",
        "isp_type_in_peering_db": "fac",
        "org_name": "Equinix",
        "city": "Denver",
        "internet_penetration_percentage": 0.795
      },
      {
        "name": "Colo Atl",
        "port_capacity": 1000,
        "state": "GA",
        "location": [33.755801, -84.390928],
        "isp_type_in_peering_db": "fac",
        "isp_id_in_peering_db": 1337,
        "city": "Atlanta",
        "org_name": "Colo Atl",
        "internet_penetration_percentage": 0.847
      },
      {
        "city": "Columbus",
        "port_capacity": 1000,
        "org_name": "Cologix, Inc.",
        "name": "Cologix COL2",
        "state": "OH",
        "location": [40.116491, -83.001985],
        "isp_type_in_peering_db": "fac",
        "isp_id_in_peering_db": 2378,
        "internet_penetration_percentage": 0.794
      },
      {
        "location": [39.58318, -104.845045],
        "org_name": "Zayo Group",
        "name": "zColo Denver - 6900 S Peoria St",
        "port_capacity": 1000,
        "state": "CO",
        "city": "Englewood",
        "isp_type_in_peering_db": "fac",
        "isp_id_in_peering_db": 2198,
        "internet_penetration_percentage": 0.795
      },
      {
        "org_name": "Digital Realty",
        "state": "VA",
        "isp_id_in_peering_db": 1380,
        "port_capacity": 1000,
        "city": "Ashburn",
        "isp_type_in_peering_db": "fac",
        "location": [39.020131, -77.463206],
        "name": "Digital Realty IAD (44521 Hastings)",
        "internet_penetration_percentage": 0.852
      },
      {
        "city": "Aurora",
        "org_name": "CyrusOne",
        "location": [41.796754, -88.24276],
        "port_capacity": 1000,
        "name": "CyrusOne Aurora",
        "isp_type_in_peering_db": "fac",
        "state": "IL",
        "isp_id_in_peering_db": 3143,
        "internet_penetration_percentage": 0.865
      },
      {
        "location": [39.101379, -76.847997],
        "name": "AiNET WDC11",
        "port_capacity": 1000,
        "org_name": "AiNET",
        "city": "Laurel",
        "isp_type_in_peering_db": "fac",
        "isp_id_in_peering_db": 6537,
        "state": "MD",
        "internet_penetration_percentage": 0.84
      },
      {
        "city": "Plano",
        "state": "TX",
        "port_capacity": 1000,
        "name": "Aligned Dallas (DFW-01)",
        "location": [33.009295, -96.676434],
        "isp_type_in_peering_db": "fac",
        "isp_id_in_peering_db": 7862,
        "org_name": "Aligned Energy",
        "internet_penetration_percentage": 0.8170000000000001
      },
      {
        "city": "Plano",
        "state": "TX",
        "org_name": "INAP Holding LLC",
        "name": "INAP Dallas",
        "isp_id_in_peering_db": 7109,
        "port_capacity": 1000,
        "location": [33.015681, -96.768421],
        "isp_type_in_peering_db": "fac",
        "internet_penetration_percentage": 0.8170000000000001
      },
      {
        "state": "NY",
        "port_capacity": 1000,
        "name": "Equinix NY9 - New York, 111 8th Avenue",
        "location": [40.753599, -73.99198],
        "isp_type_in_peering_db": "fac",
        "city": "New York",
        "org_name": "Equinix",
        "isp_id_in_peering_db": 38,
        "internet_penetration_percentage": 0.802
      },
      {
        "location": [38.832108, -104.82403],
        "port_capacity": 1000,
        "state": "CO",
        "isp_id_in_peering_db": 8223,
        "isp_type_in_peering_db": "fac",
        "name": "Data102 - COS01",
        "org_name": "Data102",
        "city": "Colorado Springs",
        "internet_penetration_percentage": 0.795
      },
      {
        "isp_id_in_peering_db": 249,
        "org_name": "Level 3 Communications, LLC",
        "port_capacity": 1000,
        "state": "GA",
        "isp_type_in_peering_db": "fac",
        "name": "Level(3) Atlanta Courtland",
        "location": [33.765138, -84.383731],
        "city": "Atlanta",
        "internet_penetration_percentage": 0.847
      },
      {
        "city": "Chicago",
        "org_name": "CoreSite LLC",
        "port_capacity": 1000,
        "location": [41.876212, -87.631453],
        "name": "CoreSite - Chicago (CH1)",
        "isp_type_in_peering_db": "fac",
        "isp_id_in_peering_db": 440,
        "state": "IL",
        "internet_penetration_percentage": 0.865
      },
      {
        "name": "Flexential - Denver/Downtown (DEN02)",
        "location": [39.745765, -104.994399],
        "port_capacity": 1000,
        "state": "CO",
        "isp_id_in_peering_db": 2450,
        "isp_type_in_peering_db": "fac",
        "org_name": "Flexential Corp.",
        "city": "Denver",
        "internet_penetration_percentage": 0.795
      },
      {
        "org_name": "Digital Realty",
        "state": "NY",
        "name": "Digital Realty NYC (60 Hudson)",
        "port_capacity": 1000,
        "location": [40.717723, -74.008299],
        "isp_id_in_peering_db": 10,
        "isp_type_in_peering_db": "fac",
        "city": "New York",
        "internet_penetration_percentage": 0.802
      },
      {
        "state": "TX",
        "location": [30.215259, -97.695071],
        "port_capacity": 1000,
        "name": "Data Foundry Austin 1",
        "isp_type_in_peering_db": "fac",
        "isp_id_in_peering_db": 2340,
        "city": "Austin",
        "org_name": "Data Foundry, Inc.",
        "internet_penetration_percentage": 0.8170000000000001
      },
      {
        "state": "TX",
        "location": [32.807888, -96.857296],
        "city": "Dallas",
        "name": "Colo4Dallas",
        "port_capacity": 1000,
        "isp_type_in_peering_db": "fac",
        "isp_id_in_peering_db": 643,
        "org_name": "Colo4Dallas",
        "internet_penetration_percentage": 0.8170000000000001
      },
      {
        "isp_id_in_peering_db": 3499,
        "state": "MI",
        "name": "ManagedWay TYM2",
        "city": "Troy",
        "port_capacity": 1000,
        "isp_type_in_peering_db": "fac",
        "location": [42.540615, -83.098459],
        "org_name": "ManagedWay Company",
        "internet_penetration_percentage": 0.812
      },
      {
        "org_name": "Digital Realty",
        "city": "Los Angeles",
        "state": "CA",
        "isp_id_in_peering_db": 403,
        "port_capacity": 1000,
        "isp_type_in_peering_db": "fac",
        "location": [34.047335, -118.25745],
        "name": "Digital Realty LAX (600 W 7th)",
        "internet_penetration_percentage": 0.838
      },
      {
        "isp_id_in_peering_db": 519,
        "location": [42.367691, -71.086779],
        "org_name": "Level 3 Communications, LLC",
        "port_capacity": 1000,
        "name": "300 Bent",
        "isp_type_in_peering_db": "fac",
        "state": "MA",
        "city": "Cambridge",
        "internet_penetration_percentage": 0.784
      },
      {
        "port_capacity": 1000,
        "state": "GA",
        "org_name": "EdgeConneX",
        "isp_type_in_peering_db": "fac",
        "isp_id_in_peering_db": 1929,
        "name": "EdgeConneX Atlanta (EDCATL01)",
        "city": "Atlanta",
        "location": [33.729369, -84.420099],
        "internet_penetration_percentage": 0.847
      },
      {
        "state": "TX",
        "name": "DataBank Dallas (DFW2)",
        "port_capacity": 1000,
        "location": [32.966683, -96.711345],
        "org_name": "DataBank, Ltd.",
        "isp_id_in_peering_db": 4285,
        "isp_type_in_peering_db": "fac",
        "city": "Richardson",
        "internet_penetration_percentage": 0.8170000000000001
      },
      {
        "location": [35.222101, -80.836747],
        "port_capacity": 1000,
        "city": "Charlotte",
        "org_name": "Deep Edge Realty",
        "name": "Deep Edge Realty - Charlotte (CADC CLT01)",
        "isp_type_in_peering_db": "fac",
        "isp_id_in_peering_db": 7878,
        "state": "NC",
        "internet_penetration_percentage": 0.8140000000000001
      },
      {
        "location": [42.469879, -83.259651],
        "state": "MI",
        "name": "365 Data Centers Detroit (DT1)",
        "port_capacity": 1000,
        "city": "Southfield",
        "org_name": "365 Data Centers",
        "isp_type_in_peering_db": "fac",
        "isp_id_in_peering_db": 2021,
        "internet_penetration_percentage": 0.812
      }
    ],
    "prefixes": 472159,
    "total_prefixes_in_globe": 7995542,
    "address_space": 1250530601,
    "total_addresses_in_globe": 19498300372,
    "neighbor": 6062,
    "info_type": "transit"
  }
}
