{"data": {"name": "AKAMAI-ASN1", "traffic_ratio": "HEAVY OUTBOUND", "pop_list": [{"isp_type_in_peering_db": "fac", "state": "WA", "port_capacity": 1000, "name": "Westin Building Seattle", "location": [47.614347, -122.338883], "city": "Seattle", "org_name": "The Westin Building", "isp_id_in_peering_db": 71, "internet_penetration_percentage": 0.885}, {"org_name": "MidWest-IX - Indy", "isp_id_in_peering_db": 986, "location": [39.75988, -86.172275], "port_capacity": 40000, "city": "Indianapolis", "name": "MidWest-IX - Indy", "isp_type_in_peering_db": "ix", "state": "IN", "internet_penetration_percentage": 0.815}, {"state": "IL", "city": "Chicago", "org_name": "Equinix", "isp_type_in_peering_db": "fac", "port_capacity": 1000, "location": [41.85365, -87.618342], "isp_id_in_peering_db": 7, "name": "Equinix CH1/CH2/CH4 - Chicago", "internet_penetration_percentage": 0.865}, {"location": [32.37803, -86.303007], "city": "Montgomery", "org_name": "MGMix Montgomery", "port_capacity": 30000, "isp_type_in_peering_db": "ix", "name": "MGMix Montgomery", "state": "AL", "isp_id_in_peering_db": 1212, "internet_penetration_percentage": 0.787}, {"state": "VA", "name": "LINX NoVA", "isp_id_in_peering_db": 777, "port_capacity": 10000, "location": [38.950631, -77.364541], "isp_type_in_peering_db": "ix", "city": "Reston", "org_name": "LINX NoVA", "internet_penetration_percentage": 0.852}, {"org_name": "Equinix Palo Alto", "port_capacity": 60000, "state": "CA", "name": "Equinix Palo Alto", "isp_type_in_peering_db": "ix", "city": "Palo Alto", "isp_id_in_peering_db": 7, "location": [37.445896, -122.160775], "internet_penetration_percentage": 0.838}, {"org_name": "RVA-IX", "state": "VA", "isp_id_in_peering_db": 1002, "location": [37.698641, -77.436436], "name": "RVA-IX", "port_capacity": 10000, "isp_type_in_peering_db": "ix", "city": "Ashland", "internet_penetration_percentage": 0.852}, {"isp_id_in_peering_db": 22, "location": [33.755456, -84.39153], "port_capacity": 80000, "org_name": "Digital Realty Atlanta", "name": "Digital Realty Atlanta", "isp_type_in_peering_db": "ix", "state": "GA", "city": "Atlanta", "internet_penetration_percentage": 0.847}, {"location": [39.959889, -75.161752], "name": "Netrality Philadelphia - 401 N Broad", "isp_id_in_peering_db": 2111, "state": "PA", "isp_type_in_peering_db": "fac", "port_capacity": 1000, "org_name": "Netrality Data Centers", "city": "Philadelphia", "internet_penetration_percentage": 0.782}, {"location": [33.755456, -84.39153], "org_name": "Equinix", "isp_type_in_peering_db": "fac", "port_capacity": 1000, "isp_id_in_peering_db": 11, "state": "GA", "name": "Equinix AT2/AT3 - Atlanta", "city": "Atlanta", "internet_penetration_percentage": 0.847}, {"state": "VA", "city": "Ashburn", "name": "MegaIX Ashburn", "isp_id_in_peering_db": 1178, "port_capacity": 10000, "isp_type_in_peering_db": "ix", "location": [39.022561, -77.455012], "org_name": "MegaIX Ashburn", "internet_penetration_percentage": 0.852}, {"name": "EdgeConneX Denver (EDCDEN01)", "location": [39.561073, -104.826671], "org_name": "EdgeConneX", "isp_type_in_peering_db": "fac", "port_capacity": 1000, "city": "Englewood", "isp_id_in_peering_db": 1875, "state": "CO", "internet_penetration_percentage": 0.795}, {"name": "KCIX", "org_name": "KCIX", "state": "MO", "isp_type_in_peering_db": "ix", "isp_id_in_peering_db": 249, "city": "Kansas City", "location": [39.100941, -94.581036], "port_capacity": 100000, "internet_penetration_percentage": 0.833}, {"name": "EdgeConneX Houston (EDCHOU01)", "state": "TX", "location": [29.794579, -95.745149], "org_name": "EdgeConneX", "isp_type_in_peering_db": "fac", "port_capacity": 1000, "city": "Katy", "isp_id_in_peering_db": 1910, "internet_penetration_percentage": 0.8170000000000001}, {"location": [37.241767, -121.782967], "state": "CA", "org_name": "Equinix San Jose", "isp_id_in_peering_db": 5, "port_capacity": 0, "isp_type_in_peering_db": "ix", "city": "San Jose", "name": "Equinix San Jose", "internet_penetration_percentage": 0.838}, {"org_name": "Equinix Miami IX", "port_capacity": 20000, "isp_type_in_peering_db": "ix", "location": [25.782648, -80.193157], "name": "Equinix Miami IX", "isp_id_in_peering_db": 17, "state": "FL", "city": "Miami", "internet_penetration_percentage": 0.8420000000000001}, {"isp_id_in_peering_db": 954, "name": "FL-IX", "isp_type_in_peering_db": "ix", "location": [25.782648, -80.193157], "state": "FL", "org_name": "FL-IX", "city": "Miami", "port_capacity": 100000, "internet_penetration_percentage": 0.8420000000000001}, {"isp_id_in_peering_db": 19, "city": "Los Angeles", "org_name": "CoreSite LLC", "state": "CA", "name": "CoreSite - Los Angeles (LA1) One Wilshire", "location": [34.047942, -118.255564], "port_capacity": 1000, "isp_type_in_peering_db": "fac", "internet_penetration_percentage": 0.838}, {"isp_id_in_peering_db": 9, "state": "NJ", "name": "Equinix NY1 - New York, Newark", "org_name": "Equinix", "isp_type_in_peering_db": "fac", "port_capacity": 1000, "city": "Newark", "location": [40.736844, -74.173402], "internet_penetration_percentage": 0.8240000000000001}, {"name": "MegaIX Los Angeles", "city": "Los Angeles", "state": "CA", "location": [34.047942, -118.255564], "port_capacity": 10000, "isp_id_in_peering_db": 1175, "isp_type_in_peering_db": "ix", "org_name": "MegaIX Los Angeles", "internet_penetration_percentage": 0.838}, {"isp_id_in_peering_db": 86, "org_name": "Equinix", "isp_type_in_peering_db": "fac", "state": "WA", "port_capacity": 1000, "name": "Equinix SE2/SE3 - Seattle", "location": [47.614358, -122.338864], "city": "Seattle", "internet_penetration_percentage": 0.885}, {"location": [33.395544, -111.97012], "city": "Tempe", "state": "AZ", "org_name": "EdgeConneX", "isp_type_in_peering_db": "fac", "port_capacity": 1000, "isp_id_in_peering_db": 1917, "name": "EdgeConneX Phoenix (EDCPHX01)", "internet_penetration_percentage": 0.8390000000000001}, {"location": [39.959889, -75.161752], "port_capacity": 100000, "state": "PA", "isp_id_in_peering_db": 2558, "org_name": "NYIIX Philadelphia", "isp_type_in_peering_db": "ix", "name": "NYIIX Philadelphia", "city": "Philadelphia", "internet_penetration_percentage": 0.782}, {"state": "TX", "isp_id_in_peering_db": 1976, "location": [26.201927, -98.231367], "name": "MDC McAllen", "isp_type_in_peering_db": "fac", "port_capacity": 1000, "org_name": "MDC (McAllen Data Center)", "city": "McAllen", "internet_penetration_percentage": 0.8170000000000001}, {"port_capacity": 200000, "name": "SIX Seattle", "state": "WA", "isp_type_in_peering_db": "ix", "location": [47.614347, -122.338883], "city": "Seattle", "org_name": "SIX Seattle", "isp_id_in_peering_db": 13, "internet_penetration_percentage": 0.885}, {"state": "NJ", "isp_type_in_peering_db": "fac", "org_name": "CyrusOne", "port_capacity": 1000, "location": [40.538224, -74.546019], "isp_id_in_peering_db": 2180, "name": "CyrusOne NJ-1", "city": "Somerset", "internet_penetration_percentage": 0.8240000000000001}, {"state": "TX", "org_name": "Equinix", "isp_type_in_peering_db": "fac", "port_capacity": 1000, "location": [32.800955, -96.81955], "name": "Equinix DA3 - Dallas", "isp_id_in_peering_db": 69, "city": "Dallas", "internet_penetration_percentage": 0.8170000000000001}, {"isp_id_in_peering_db": 6, "location": [37.241767, -121.782967], "state": "CA", "org_name": "Equinix", "isp_type_in_peering_db": "fac", "port_capacity": 1000, "city": "San Jose", "name": "Equinix SV1/SV5/SV10 - Silicon Valley, San Jose", "internet_penetration_percentage": 0.838}, {"org_name": "DE-CIX New York", "name": "DE-CIX New York", "isp_type_in_peering_db": "ix", "state": "NY", "location": [40.717723, -74.008299], "city": "New York", "isp_id_in_peering_db": 804, "port_capacity": 100000, "internet_penetration_percentage": 0.802}, {"name": "Equinix Ashburn", "state": "VA", "location": [39.016363, -77.459023], "city": "Ashburn", "isp_type_in_peering_db": "ix", "org_name": "Equinix Ashburn", "isp_id_in_peering_db": 1, "port_capacity": 400000, "internet_penetration_percentage": 0.852}, {"state": "VA", "location": [39.016363, -77.459023], "city": "Ashburn", "name": "Equinix DC1-DC15 - Ashburn", "org_name": "Equinix", "isp_type_in_peering_db": "fac", "port_capacity": 1000, "isp_id_in_peering_db": 1, "internet_penetration_percentage": 0.852}, {"location": [40.741355, -74.003203], "isp_type_in_peering_db": "fac", "port_capacity": 1000, "name": "Digital Realty NYC (111 8th Ave)", "state": "NY", "city": "New York", "org_name": "Digital Realty", "isp_id_in_peering_db": 16, "internet_penetration_percentage": 0.802}, {"state": "TX", "org_name": "Equinix Dallas", "location": [32.800955, -96.81955], "isp_type_in_peering_db": "ix", "name": "Equinix Dallas", "city": "Dallas", "isp_id_in_peering_db": 3, "port_capacity": 100000, "internet_penetration_percentage": 0.8170000000000001}, {"name": "Equinix New York", "isp_id_in_peering_db": 12, "port_capacity": 10000, "isp_type_in_peering_db": "ix", "org_name": "Equinix New York", "state": "NY", "location": [40.753599, -73.99198], "city": "New York", "internet_penetration_percentage": 0.802}, {"isp_id_in_peering_db": 446, "org_name": "MICE", "location": [44.971385, -93.254494], "port_capacity": 100000, "state": "MN", "name": "MICE", "isp_type_in_peering_db": "ix", "city": "Minneapolis", "internet_penetration_percentage": 0.856}, {"city": "Los Angeles", "state": "CA", "location": [34.047942, -118.255564], "port_capacity": 20000, "org_name": "CoreSite - Any2 California", "isp_type_in_peering_db": "ix", "isp_id_in_peering_db": 142, "name": "CoreSite - Any2 California", "internet_penetration_percentage": 0.838}, {"org_name": "EdgeConneX", "isp_type_in_peering_db": "fac", "name": "EdgeConneX Boston (EDCBOS01)", "port_capacity": 1000, "location": [42.528505, -71.249495], "city": "Billerica", "state": "MA", "isp_id_in_peering_db": 2073, "internet_penetration_percentage": 0.784}, {"isp_id_in_peering_db": 15, "org_name": "Equinix", "isp_type_in_peering_db": "fac", "port_capacity": 1000, "location": [25.782648, -80.193157], "state": "FL", "city": "Miami", "name": "Equinix MI1 - Miami, NOTA", "internet_penetration_percentage": 0.8420000000000001}, {"location": [30.331375, -81.662322], "name": "JXIX", "city": "Jacksonville", "port_capacity": 10000, "isp_id_in_peering_db": 563, "isp_type_in_peering_db": "ix", "state": "FL", "org_name": "JXIX", "internet_penetration_percentage": 0.8420000000000001}, {"org_name": "CoreSite LLC", "state": "CA", "isp_type_in_peering_db": "fac", "name": "CoreSite - San Jose (SV1)", "port_capacity": 1000, "city": "San Jose", "isp_id_in_peering_db": 20, "location": [37.334147, -121.891649], "internet_penetration_percentage": 0.838}, {"org_name": "NYIIX", "isp_type_in_peering_db": "ix", "isp_id_in_peering_db": 14, "state": "NY", "location": [40.717723, -74.008299], "city": "New York", "name": "NYIIX", "port_capacity": 100000, "internet_penetration_percentage": 0.802}, {"isp_id_in_peering_db": 565, "port_capacity": 40000, "org_name": "Boston Internet Exchange", "location": [42.354692, -71.060266], "isp_type_in_peering_db": "ix", "state": "MA", "name": "Boston Internet Exchange", "city": "Boston", "internet_penetration_percentage": 0.784}, {"org_name": "QTS Realty Trust, Inc.", "isp_id_in_peering_db": 1177, "state": "NJ", "city": "Piscataway", "isp_type_in_peering_db": "fac", "port_capacity": 1000, "location": [40.556905, -74.484735], "name": "QTS Piscataway (PNJ1)", "internet_penetration_percentage": 0.8240000000000001}, {"name": "Equinix Chicago", "state": "IL", "city": "Chicago", "isp_id_in_peering_db": 2, "port_capacity": 10000, "isp_type_in_peering_db": "ix", "org_name": "Equinix Chicago", "location": [41.85365, -87.618342], "internet_penetration_percentage": 0.865}, {"name": "SNAP", "isp_id_in_peering_db": 627, "port_capacity": 10000, "isp_type_in_peering_db": "ix", "state": "GA", "city": "Atlanta", "org_name": "SNAP", "location": [33.755801, -84.390928], "internet_penetration_percentage": 0.847}, {"state": "TX", "org_name": "MEX-IX", "location": [26.201927, -98.231367], "isp_id_in_peering_db": 2036, "isp_type_in_peering_db": "ix", "name": "MEX-IX", "port_capacity": 100000, "city": "McAllen", "internet_penetration_percentage": 0.8170000000000001}, {"state": "TX", "isp_id_in_peering_db": 1249, "port_capacity": 10000, "org_name": "DE-CIX Dallas", "isp_type_in_peering_db": "ix", "name": "DE-CIX Dallas", "city": "Dallas", "location": [32.787212, -96.794219], "internet_penetration_percentage": 0.8170000000000001}, {"isp_id_in_peering_db": 38, "org_name": "Equinix", "isp_type_in_peering_db": "fac", "port_capacity": 1000, "state": "NY", "location": [40.753599, -73.99198], "city": "New York", "name": "Equinix NY9 - New York, 111 8th Avenue", "internet_penetration_percentage": 0.802}, {"city": "Los Angeles", "org_name": "NYIIX Los Angeles", "state": "CA", "location": [34.047942, -118.255564], "port_capacity": 20000, "name": "NYIIX Los Angeles", "isp_type_in_peering_db": "ix", "isp_id_in_peering_db": 23, "internet_penetration_percentage": 0.838}, {"state": "TX", "org_name": "MegaIX Dallas", "port_capacity": 10000, "isp_type_in_peering_db": "ix", "city": "Dallas", "name": "MegaIX Dallas", "isp_id_in_peering_db": 1180, "location": [32.787212, -96.794219], "internet_penetration_percentage": 0.8170000000000001}, {"name": "MegaIX Seattle", "state": "WA", "port_capacity": 10000, "isp_type_in_peering_db": "ix", "location": [47.614347, -122.338883], "isp_id_in_peering_db": 1174, "city": "Seattle", "org_name": "MegaIX Seattle", "internet_penetration_percentage": 0.885}, {"location": [36.065272, -115.130816], "isp_id_in_peering_db": 1918, "city": "Las Vegas", "name": "EdgeConneX Las Vegas (EDCLAS01)", "org_name": "EdgeConneX", "isp_type_in_peering_db": "fac", "port_capacity": 1000, "state": "NV", "internet_penetration_percentage": 0.875}, {"state": "TX", "name": "Equinix DA1 - Dallas", "org_name": "Equinix", "isp_type_in_peering_db": "fac", "port_capacity": 1000, "location": [32.800955, -96.81955], "isp_id_in_peering_db": 4, "city": "Dallas", "internet_penetration_percentage": 0.8170000000000001}, {"location": [33.755456, -84.39153], "isp_id_in_peering_db": 125, "isp_type_in_peering_db": "fac", "port_capacity": 1000, "state": "GA", "city": "Atlanta", "org_name": "Digital Realty", "name": "Digital Realty ATL (56 Marietta)", "internet_penetration_percentage": 0.847}, {"location": [39.959668, -75.161377], "name": "PhillyIX", "port_capacity": 100000, "state": "PA", "isp_id_in_peering_db": 2088, "isp_type_in_peering_db": "ix", "org_name": "PhillyIX", "city": "Philadelphia", "internet_penetration_percentage": 0.782}, {"isp_id_in_peering_db": 809, "name": "OmahaIX", "port_capacity": 40000, "state": "NE", "isp_type_in_peering_db": "ix", "location": [41.257352, -95.938191], "org_name": "OmahaIX", "city": "Omaha", "internet_penetration_percentage": 0.831}, {"name": "TPAIX", "port_capacity": 20000, "location": [27.947729, -82.459331], "isp_type_in_peering_db": "ix", "city": "Tampa", "isp_id_in_peering_db": 833, "state": "FL", "org_name": "TPAIX", "internet_penetration_percentage": 0.8420000000000001}, {"isp_id_in_peering_db": 935, "state": "CA", "org_name": "AMS-IX BA", "location": [37.723407, -122.397923], "port_capacity": 10000, "isp_type_in_peering_db": "ix", "city": "San Francisco", "name": "AMS-IX BA", "internet_penetration_percentage": 0.838}, {"location": [34.047501, -118.2573], "city": "Los Angeles", "state": "CA", "isp_id_in_peering_db": 8, "org_name": "Equinix", "isp_type_in_peering_db": "fac", "port_capacity": 1000, "name": "Equinix LA1 - Los Angeles", "internet_penetration_percentage": 0.838}, {"location": [33.452003, -112.072042], "city": "Phoenix", "state": "AZ", "name": "Phoenix IX", "port_capacity": 10000, "isp_type_in_peering_db": "ix", "org_name": "Phoenix IX", "isp_id_in_peering_db": 662, "internet_penetration_percentage": 0.8390000000000001}, {"name": "ChIX", "state": "IL", "city": "Chicago", "port_capacity": 10000, "isp_type_in_peering_db": "ix", "org_name": "ChIX", "isp_id_in_peering_db": 239, "location": [41.85365, -87.618342], "internet_penetration_percentage": 0.865}], "prefixes": 6615, "total_prefixes_in_globe": 7995542, "address_space": 8885136, "total_addresses_in_globe": 19498300372, "neighbor": 468, "info_type": "content"}}