{"data": {"name": "ASN-CXA-ALL-CCI-22773-RDC", "traffic_ratio": "MOSTLY INBOUND", "pop_list": [{"port_capacity": 1000, "isp_id_in_peering_db": 1928, "org_name": "EdgeConneX", "city": "San Diego", "isp_type_in_peering_db": "fac", "state": "CA", "name": "EdgeConneX San Diego (EDCSDG01)", "location": [32.84049, -117.168374], "internet_penetration_percentage": 0.838}, {"location": [40.753599, -73.99198], "name": "Equinix NY9 - New York, 111 8th Avenue", "state": "NY", "isp_id_in_peering_db": 38, "isp_type_in_peering_db": "fac", "org_name": "Equinix", "port_capacity": 1000, "city": "New York", "internet_penetration_percentage": 0.802}, {"org_name": "Equinix", "city": "Los Angeles", "location": [34.047501, -118.2573], "name": "Equinix LA1 - Los Angeles", "isp_type_in_peering_db": "fac", "state": "CA", "port_capacity": 1000, "isp_id_in_peering_db": 8, "internet_penetration_percentage": 0.838}, {"location": [33.755456, -84.39153], "isp_id_in_peering_db": 125, "name": "Digital Realty ATL (56 Marietta)", "state": "GA", "org_name": "Digital Realty", "isp_type_in_peering_db": "fac", "city": "Atlanta", "port_capacity": 1000, "internet_penetration_percentage": 0.847}, {"org_name": "Netrality Data Centers", "location": [39.100941, -94.581036], "state": "MO", "city": "Kansas City", "isp_type_in_peering_db": "fac", "name": "Netrality Kansas City - 1102 Grand", "port_capacity": 1000, "isp_id_in_peering_db": 435, "internet_penetration_percentage": 0.833}, {"org_name": "Equinix", "name": "Equinix SV1/SV5/SV10 - Silicon Valley, San Jose", "location": [37.241767, -121.782967], "isp_id_in_peering_db": 6, "city": "San Jose", "isp_type_in_peering_db": "fac", "state": "CA", "port_capacity": 1000, "internet_penetration_percentage": 0.838}, {"location": [33.755456, -84.39153], "name": "Equinix AT2/AT3 - Atlanta", "state": "GA", "isp_type_in_peering_db": "fac", "isp_id_in_peering_db": 11, "city": "Atlanta", "org_name": "Equinix", "port_capacity": 1000, "internet_penetration_percentage": 0.847}, {"state": "VA", "name": "EdgeConneX Norfolk (EDCNOR01)", "port_capacity": 1000, "org_name": "EdgeConneX", "isp_id_in_peering_db": 1921, "isp_type_in_peering_db": "fac", "city": "Norfolk", "location": [36.86186, -76.235342], "internet_penetration_percentage": 0.852}, {"location": [41.85365, -87.618342], "name": "Digital Realty CHI (350 E Cermak)", "isp_id_in_peering_db": 466, "city": "Chicago", "org_name": "Digital Realty", "isp_type_in_peering_db": "fac", "state": "IL", "port_capacity": 1000, "internet_penetration_percentage": 0.865}, {"location": [41.85365, -87.618342], "isp_id_in_peering_db": 7, "name": "Equinix CH1/CH2/CH4 - Chicago", "city": "Chicago", "isp_type_in_peering_db": "fac", "state": "IL", "org_name": "Equinix", "port_capacity": 1000, "internet_penetration_percentage": 0.865}, {"location": [32.800955, -96.81955], "name": "Equinix DA1 - Dallas", "state": "TX", "city": "Dallas", "isp_type_in_peering_db": "fac", "org_name": "Equinix", "port_capacity": 1000, "isp_id_in_peering_db": 4, "internet_penetration_percentage": 0.8170000000000001}, {"state": "NY", "isp_id_in_peering_db": 16, "org_name": "Digital Realty", "location": [40.741355, -74.003203], "isp_type_in_peering_db": "fac", "name": "Digital Realty NYC (111 8th Ave)", "port_capacity": 1000, "city": "New York", "internet_penetration_percentage": 0.802}, {"city": "Boston", "isp_id_in_peering_db": 219, "name": "Markley Group One Summer Street Boston", "org_name": "Markley Group, LLC", "state": "MA", "isp_type_in_peering_db": "fac", "location": [42.354692, -71.060266], "port_capacity": 1000, "internet_penetration_percentage": 0.784}, {"isp_id_in_peering_db": 1, "name": "Equinix DC1-DC15 - Ashburn", "state": "VA", "location": [39.016363, -77.459023], "city": "Ashburn", "isp_type_in_peering_db": "fac", "org_name": "Equinix", "port_capacity": 1000, "internet_penetration_percentage": 0.852}, {"org_name": "EdgeConneX", "state": "NV", "location": [36.065272, -115.130816], "isp_id_in_peering_db": 1918, "city": "Las Vegas", "isp_type_in_peering_db": "fac", "port_capacity": 1000, "name": "EdgeConneX Las Vegas (EDCLAS01)", "internet_penetration_percentage": 0.875}, {"name": "EdgeConneX Phoenix (EDCPHX01)", "state": "AZ", "org_name": "EdgeConneX", "location": [33.395544, -111.97012], "isp_type_in_peering_db": "fac", "port_capacity": 1000, "isp_id_in_peering_db": 1917, "city": "Tempe", "internet_penetration_percentage": 0.8390000000000001}], "prefixes": 15831, "total_prefixes_in_globe": 7995542, "address_space": 58583360, "total_addresses_in_globe": 19498300372, "neighbor": 545, "info_type": "access"}}