{"data": {"name": "COLUMBUS-NETWORKS", "traffic_ratio": "MOSTLY INBOUND", "pop_list": [{"location": [40.753599, -73.99198], "name": "Equinix NY9 - New York, 111 8th Avenue", "state": "NY", "isp_id_in_peering_db": 38, "isp_type_in_peering_db": "fac", "org_name": "Equinix", "port_capacity": 1000, "city": "New York", "internet_penetration_percentage": 0.802}, {"location": [40.717723, -74.008299], "isp_type_in_peering_db": "ix", "isp_id_in_peering_db": 325, "state": "NY", "name": "Digital Realty New York", "org_name": "Digital Realty New York", "port_capacity": 10000, "city": "New York", "internet_penetration_percentage": 0.802}, {"location": [33.755456, -84.39153], "isp_type_in_peering_db": "ix", "name": "Digital Realty Atlanta", "org_name": "Digital Realty Atlanta", "port_capacity": 100000, "isp_id_in_peering_db": 22, "state": "GA", "city": "Atlanta", "internet_penetration_percentage": 0.847}, {"state": "NY", "isp_id_in_peering_db": 16, "org_name": "Digital Realty", "location": [40.741355, -74.003203], "isp_type_in_peering_db": "fac", "name": "Digital Realty NYC (111 8th Ave)", "port_capacity": 1000, "city": "New York", "internet_penetration_percentage": 0.802}, {"name": "Cologix JAX1", "location": [30.331403, -81.66242], "org_name": "Cologix, Inc.", "state": "FL", "isp_type_in_peering_db": "fac", "isp_id_in_peering_db": 1946, "port_capacity": 1000, "city": "Jacksonville", "internet_penetration_percentage": 0.8420000000000001}, {"org_name": "Equinix", "name": "Equinix SV1/SV5/SV10 - Silicon Valley, San Jose", "location": [37.241767, -121.782967], "isp_id_in_peering_db": 6, "city": "San Jose", "isp_type_in_peering_db": "fac", "state": "CA", "port_capacity": 1000, "internet_penetration_percentage": 0.838}, {"name": "Equinix MI1 - Miami, NOTA", "location": [25.782648, -80.193157], "city": "Miami", "state": "FL", "isp_id_in_peering_db": 15, "isp_type_in_peering_db": "fac", "org_name": "Equinix", "port_capacity": 1000, "internet_penetration_percentage": 0.8420000000000001}, {"isp_id_in_peering_db": 1, "isp_type_in_peering_db": "ix", "state": "VA", "location": [39.016363, -77.459023], "city": "Ashburn", "name": "Equinix Ashburn", "org_name": "Equinix Ashburn", "port_capacity": 10000, "internet_penetration_percentage": 0.852}, {"location": [41.85365, -87.618342], "isp_id_in_peering_db": 7, "name": "Equinix CH1/CH2/CH4 - Chicago", "city": "Chicago", "isp_type_in_peering_db": "fac", "state": "IL", "org_name": "Equinix", "port_capacity": 1000, "internet_penetration_percentage": 0.865}, {"location": [40.753599, -73.99198], "isp_type_in_peering_db": "ix", "state": "NY", "name": "Equinix New York", "isp_id_in_peering_db": 12, "org_name": "Equinix New York", "port_capacity": 10000, "city": "New York", "internet_penetration_percentage": 0.802}, {"isp_id_in_peering_db": 1, "name": "Equinix DC1-DC15 - Ashburn", "state": "VA", "location": [39.016363, -77.459023], "city": "Ashburn", "isp_type_in_peering_db": "fac", "org_name": "Equinix", "port_capacity": 1000, "internet_penetration_percentage": 0.852}, {"isp_id_in_peering_db": 17, "isp_type_in_peering_db": "ix", "location": [25.782648, -80.193157], "city": "Miami", "port_capacity": 200000, "name": "Equinix Miami IX", "org_name": "Equinix Miami IX", "state": "FL", "internet_penetration_percentage": 0.8420000000000001}], "prefixes": 21855, "total_prefixes_in_globe": 7995542, "address_space": 34195056, "total_addresses_in_globe": 19498300372, "neighbor": 152, "info_type": "transit"}}