{"data": {"name": "HURRICANE", "traffic_ratio": "BALANCED", "pop_list": [{"isp_type_in_peering_db": "ix", "isp_id_in_peering_db": 627, "location": [33.755801, -84.390928], "name": "SNAP", "state": "GA", "org_name": "SNAP", "city": "Atlanta", "port_capacity": 10000, "internet_penetration_percentage": 0.847}, {"org_name": "Level 3 Communications, LLC", "state": "MO", "location": [39.100517, -94.582419], "city": "Kansas City", "name": "Level(3) Kansas City", "isp_type_in_peering_db": "fac", "isp_id_in_peering_db": 1069, "port_capacity": 1000, "internet_penetration_percentage": 0.833}, {"city": "Portland", "isp_type_in_peering_db": "ix", "location": [43.658074, -70.29982], "state": "ME", "name": "NNENIX", "port_capacity": 20000, "org_name": "NNENIX", "isp_id_in_peering_db": 1679, "internet_penetration_percentage": 0.851}, {"isp_type_in_peering_db": "ix", "state": "MN", "city": "Minneapolis", "port_capacity": 100000, "name": "MICE", "org_name": "MICE", "location": [44.971385, -93.254494], "isp_id_in_peering_db": 446, "internet_penetration_percentage": 0.856}, {"name": "1623 Farnam", "org_name": "1623 Farnam, LLC", "isp_id_in_peering_db": 575, "state": "NE", "city": "Omaha", "isp_type_in_peering_db": "fac", "port_capacity": 1000, "location": [41.257352, -95.938191], "internet_penetration_percentage": 0.831}, {"state": "HI", "name": "DRFortress HNL", "isp_id_in_peering_db": 2526, "org_name": "DRFortress LLC", "isp_type_in_peering_db": "fac", "city": "Honolulu", "location": [21.335678, -157.917855], "port_capacity": 1000, "internet_penetration_percentage": 0.836}, {"name": "Equinix SV8 - Silicon Valley, Palo Alto", "org_name": "Equinix", "location": [37.445896, -122.160775], "isp_id_in_peering_db": 5, "isp_type_in_peering_db": "fac", "state": "CA", "port_capacity": 1000, "city": "Palo Alto", "internet_penetration_percentage": 0.838}, {"location": [33.755801, -84.390928], "port_capacity": 1000, "isp_id_in_peering_db": 1337, "state": "GA", "isp_type_in_peering_db": "fac", "city": "Atlanta", "name": "Colo Atl", "org_name": "Colo Atl", "internet_penetration_percentage": 0.847}, {"isp_type_in_peering_db": "ix", "isp_id_in_peering_db": 155, "city": "San Francisco", "name": "SFMIX", "org_name": "SFMIX", "port_capacity": 20000, "state": "CA", "location": [37.723407, -122.397923], "internet_penetration_percentage": 0.838}, {"state": "UT", "isp_id_in_peering_db": 2077, "city": "Salt Lake City", "name": "EdgeConneX Salt Lake City (EDCSLC01)", "org_name": "EdgeConneX", "isp_type_in_peering_db": "fac", "port_capacity": 1000, "location": [40.720873, -111.984927], "internet_penetration_percentage": 0.877}, {"location": [40.717723, -74.008299], "isp_type_in_peering_db": "ix", "state": "NY", "isp_id_in_peering_db": 804, "port_capacity": 100000, "name": "DE-CIX New York", "org_name": "DE-CIX New York", "city": "New York", "internet_penetration_percentage": 0.802}, {"isp_type_in_peering_db": "ix", "name": "HOUIX", "org_name": "HOUIX", "isp_id_in_peering_db": 2835, "state": "TX", "city": "Houston", "location": [29.753242, -95.365882], "port_capacity": 10000, "internet_penetration_percentage": 0.8170000000000001}, {"isp_id_in_peering_db": 3077, "location": [47.619054, -122.336393], "name": "H5 Data Centers Seattle", "org_name": "H5 Data Centers", "city": "Seattle", "isp_type_in_peering_db": "fac", "port_capacity": 1000, "state": "WA", "internet_penetration_percentage": 0.885}, {"location": [32.800955, -96.81955], "org_name": "Flexential Corp.", "name": "Flexential - Dallas/Downtown (DAL01)", "isp_id_in_peering_db": 2157, "state": "TX", "city": "Dallas", "isp_type_in_peering_db": "fac", "port_capacity": 1000, "internet_penetration_percentage": 0.8170000000000001}, {"location": [38.629332, -90.197305], "org_name": "Netrality Data Centers", "name": "Netrality St. Louis - 210 N Tucker", "state": "MO", "isp_type_in_peering_db": "fac", "city": "St. Louis", "port_capacity": 1000, "isp_id_in_peering_db": 1978, "internet_penetration_percentage": 0.833}, {"isp_id_in_peering_db": 171, "state": "AZ", "location": [33.452003, -112.072042], "name": "Digital Realty PHX (120 E Van Buren)", "city": "Phoenix", "org_name": "Digital Realty", "isp_type_in_peering_db": "fac", "port_capacity": 1000, "internet_penetration_percentage": 0.8390000000000001}, {"location": [29.429369, -98.486791], "name": "H5 Data Centers San Antonio", "isp_id_in_peering_db": 6011, "state": "TX", "org_name": "H5 Data Centers", "city": "San Antonio", "isp_type_in_peering_db": "fac", "port_capacity": 1000, "internet_penetration_percentage": 0.8170000000000001}, {"name": "NYIIX", "location": [40.717723, -74.008299], "org_name": "NYIIX", "isp_type_in_peering_db": "ix", "state": "NY", "isp_id_in_peering_db": 14, "port_capacity": 100000, "city": "New York", "internet_penetration_percentage": 0.802}, {"city": "Madison", "state": "WI", "location": [43.073336, -89.386996], "org_name": "5Nines Data / Network222", "isp_id_in_peering_db": 559, "isp_type_in_peering_db": "fac", "port_capacity": 1000, "name": "5Nines Data", "internet_penetration_percentage": 0.875}, {"name": "MegaIX Seattle", "org_name": "MegaIX Seattle", "location": [47.614347, -122.338883], "isp_type_in_peering_db": "ix", "city": "Seattle", "port_capacity": 10000, "isp_id_in_peering_db": 1174, "state": "WA", "internet_penetration_percentage": 0.885}, {"location": [40.717723, -74.008299], "isp_type_in_peering_db": "ix", "isp_id_in_peering_db": 325, "state": "NY", "name": "Digital Realty New York", "port_capacity": 100000, "org_name": "Digital Realty New York", "city": "New York", "internet_penetration_percentage": 0.802}, {"location": [41.85365, -87.618342], "name": "Digital Realty CHI (350 E Cermak)", "isp_id_in_peering_db": 466, "city": "Chicago", "org_name": "Digital Realty", "isp_type_in_peering_db": "fac", "state": "IL", "port_capacity": 1000, "internet_penetration_percentage": 0.865}, {"name": "Digital Realty SFO (200 Paul)", "city": "San Francisco", "isp_id_in_peering_db": 2, "org_name": "Digital Realty", "isp_type_in_peering_db": "fac", "state": "CA", "port_capacity": 1000, "location": [37.723407, -122.397923], "internet_penetration_percentage": 0.838}, {"name": "EdgeConneX Phoenix (EDCPHX01)", "state": "AZ", "org_name": "EdgeConneX", "location": [33.395544, -111.97012], "isp_type_in_peering_db": "fac", "port_capacity": 1000, "isp_id_in_peering_db": 1917, "city": "Tempe", "internet_penetration_percentage": 0.8390000000000001}, {"location": [32.800703, -96.81919], "isp_id_in_peering_db": 2375, "port_capacity": 1000, "org_name": "Cologix, Inc.", "state": "TX", "city": "Dallas", "isp_type_in_peering_db": "fac", "name": "Cologix DAL1", "internet_penetration_percentage": 0.8170000000000001}, {"isp_id_in_peering_db": 5693, "name": "RACK59 Data Center", "org_name": "RACK59 Partners, LLC", "city": "Oklahoma City", "isp_type_in_peering_db": "fac", "location": [35.466482, -97.649302], "port_capacity": 1000, "state": "OK", "internet_penetration_percentage": 0.802}, {"name": "EdgeConneX Atlanta (EDCATL01)", "isp_id_in_peering_db": 1929, "org_name": "EdgeConneX", "state": "GA", "location": [33.729369, -84.420099], "isp_type_in_peering_db": "fac", "city": "Atlanta", "port_capacity": 1000, "internet_penetration_percentage": 0.847}, {"org_name": "Flexential Corp.", "city": "Aurora", "location": [39.66107, -104.849813], "isp_id_in_peering_db": 2438, "name": "Flexential - Denver/Aurora (DEN03)", "isp_type_in_peering_db": "fac", "state": "CO", "port_capacity": 1000, "internet_penetration_percentage": 0.795}, {"isp_id_in_peering_db": 142, "isp_type_in_peering_db": "ix", "city": "Los Angeles", "port_capacity": 200000, "name": "CoreSite - Any2 California", "org_name": "CoreSite - Any2 California", "location": [34.047942, -118.255564], "state": "CA", "internet_penetration_percentage": 0.838}, {"org_name": "Netrality Data Centers", "location": [39.100941, -94.581036], "state": "MO", "city": "Kansas City", "isp_type_in_peering_db": "fac", "name": "Netrality Kansas City - 1102 Grand", "port_capacity": 1000, "isp_id_in_peering_db": 435, "internet_penetration_percentage": 0.833}, {"org_name": "AMS-IX BA", "isp_type_in_peering_db": "ix", "city": "San Francisco", "isp_id_in_peering_db": 935, "location": [37.723407, -122.397923], "port_capacity": 20000, "state": "CA", "name": "AMS-IX BA", "internet_penetration_percentage": 0.838}, {"location": [41.876212, -87.631453], "isp_type_in_peering_db": "ix", "port_capacity": 100000, "city": "Chicago", "name": "AMS-IX Chicago", "isp_id_in_peering_db": 944, "org_name": "AMS-IX Chicago", "state": "IL", "internet_penetration_percentage": 0.865}, {"location": [36.162626, -86.778674], "org_name": "365 Data Centers", "name": "365 Data Centers Nashville (NA1)", "city": "Nashville", "isp_id_in_peering_db": 561, "isp_type_in_peering_db": "fac", "port_capacity": 1000, "state": "TN", "internet_penetration_percentage": 0.782}, {"isp_id_in_peering_db": 1177, "location": [40.556905, -74.484735], "name": "QTS Piscataway (PNJ1)", "org_name": "QTS Realty Trust, Inc.", "state": "NJ", "isp_type_in_peering_db": "fac", "port_capacity": 1000, "city": "Piscataway", "internet_penetration_percentage": 0.8240000000000001}, {"city": "Tukwila", "isp_id_in_peering_db": 2078, "name": "EdgeConneX Seattle (EDCSEA01)", "location": [47.498209, -122.289962], "org_name": "EdgeConneX", "isp_type_in_peering_db": "fac", "port_capacity": 1000, "state": "WA", "internet_penetration_percentage": 0.885}, {"location": [38.950631, -77.364541], "state": "VA", "city": "Reston", "name": "CoreSite - Reston (VA1)", "isp_id_in_peering_db": 668, "org_name": "CoreSite LLC", "isp_type_in_peering_db": "fac", "port_capacity": 1000, "internet_penetration_percentage": 0.852}, {"name": "Data Foundry Texas 1", "isp_id_in_peering_db": 1720, "state": "TX", "city": "Austin", "location": [30.198926, -97.713716], "org_name": "Data Foundry, Inc.", "isp_type_in_peering_db": "fac", "port_capacity": 1000, "internet_penetration_percentage": 0.8170000000000001}, {"city": "Elk Grove Village", "isp_id_in_peering_db": 968, "location": [42.001171, -87.954882], "isp_type_in_peering_db": "fac", "state": "IL", "org_name": "Equinix", "port_capacity": 1000, "name": "Equinix CH3 - Elk Grove", "internet_penetration_percentage": 0.865}, {"city": "Santa Clara", "name": "EdgeConneX Santa Clara (EDCSVC01) ", "isp_id_in_peering_db": 2427, "org_name": "EdgeConneX", "location": [37.364196, -121.958867], "isp_type_in_peering_db": "fac", "state": "CA", "port_capacity": 1000, "internet_penetration_percentage": 0.838}, {"location": [35.088555, -106.652284], "isp_id_in_peering_db": 5092, "city": "Albuquerque", "name": "H5 Data Centers Albuquerque", "org_name": "H5 Data Centers", "isp_type_in_peering_db": "fac", "port_capacity": 1000, "state": "NM", "internet_penetration_percentage": 0.833}, {"org_name": "Telehouse - Global Data Centers", "city": "Staten Island", "isp_id_in_peering_db": 737, "state": "NY", "name": "Telehouse - Teleport Center (New York)", "isp_type_in_peering_db": "fac", "port_capacity": 1000, "location": [40.606231, -74.173722], "internet_penetration_percentage": 0.802}, {"isp_id_in_peering_db": 2071, "state": "VA", "city": "Ashland", "location": [37.698641, -77.436436], "org_name": "Pixel Factory", "isp_type_in_peering_db": "fac", "port_capacity": 1000, "name": "Pixel Factory Data Center", "internet_penetration_percentage": 0.852}, {"state": "UT", "location": [40.768519, -111.885833], "org_name": "DataBank, Ltd.", "city": "Salt Lake City", "isp_type_in_peering_db": "fac", "name": "DataBank Salt Lake City (SLC1)", "isp_id_in_peering_db": 4293, "port_capacity": 1000, "internet_penetration_percentage": 0.877}, {"name": "RSA Dexter Avenue Datacenter", "location": [32.37803, -86.303007], "state": "AL", "isp_type_in_peering_db": "fac", "isp_id_in_peering_db": 2313, "city": "Montgomery", "port_capacity": 1000, "org_name": "Retirement Systems of Alabama (RSA)", "internet_penetration_percentage": 0.787}, {"isp_type_in_peering_db": "ix", "location": [38.625536, -90.195238], "state": "MO", "name": "MidWest-IX - St. Louis", "org_name": "MidWest-IX - St. Louis", "city": "St. Louis", "port_capacity": 10000, "isp_id_in_peering_db": 1519, "internet_penetration_percentage": 0.833}, {"name": "CoreSite - Miami (MI1)", "location": [25.797548, -80.230038], "isp_id_in_peering_db": 669, "city": "Miami", "org_name": "CoreSite LLC", "state": "FL", "isp_type_in_peering_db": "fac", "port_capacity": 1000, "internet_penetration_percentage": 0.8420000000000001}, {"isp_type_in_peering_db": "ix", "location": [37.241767, -121.782967], "port_capacity": 200000, "city": "San Jose", "isp_id_in_peering_db": 5, "state": "CA", "name": "Equinix San Jose", "org_name": "Equinix San Jose", "internet_penetration_percentage": 0.838}, {"city": "Chicago", "location": [41.841895, -87.668306], "isp_id_in_peering_db": 3362, "org_name": "QTS Realty Trust, Inc.", "isp_type_in_peering_db": "fac", "state": "IL", "port_capacity": 1000, "name": "QTS Chicago (CHI1)", "internet_penetration_percentage": 0.865}, {"name": "Equinix MI3 - Miami, Boca Raton", "city": "Boca Raton", "state": "FL", "location": [26.387989, -80.108267], "isp_type_in_peering_db": "fac", "isp_id_in_peering_db": 1271, "org_name": "Equinix", "port_capacity": 1000, "internet_penetration_percentage": 0.8420000000000001}, {"org_name": "Netrality Data Centers", "name": "Netrality Philadelphia - 401 N Broad", "state": "PA", "location": [39.959889, -75.161752], "isp_id_in_peering_db": 2111, "city": "Philadelphia", "isp_type_in_peering_db": "fac", "port_capacity": 1000, "internet_penetration_percentage": 0.782}, {"location": [40.722759, -73.631821], "state": "NY", "port_capacity": 1000, "city": "Garden City", "isp_id_in_peering_db": 1040, "isp_type_in_peering_db": "fac", "org_name": "Webair", "name": "501 Franklin Ave", "internet_penetration_percentage": 0.802}, {"isp_type_in_peering_db": "ix", "state": "PA", "isp_id_in_peering_db": 2558, "location": [39.959889, -75.161752], "city": "Philadelphia", "port_capacity": 10000, "name": "NYIIX Philadelphia", "org_name": "NYIIX Philadelphia", "internet_penetration_percentage": 0.782}, {"city": "Denver", "isp_type_in_peering_db": "ix", "location": [39.745604, -104.99567], "isp_id_in_peering_db": 1207, "state": "CO", "port_capacity": 20000, "name": "IX-Denver", "org_name": "IX-Denver", "internet_penetration_percentage": 0.795}, {"city": "Tampa", "org_name": "365 Data Centers", "isp_id_in_peering_db": 2086, "state": "FL", "isp_type_in_peering_db": "fac", "port_capacity": 1000, "name": "365 Data Centers Tampa (TA1)", "location": [27.949981, -82.458383], "internet_penetration_percentage": 0.8420000000000001}, {"location": [33.277073, -111.885739], "isp_id_in_peering_db": 3076, "state": "AZ", "port_capacity": 1000, "org_name": "H5 Data Centers", "city": "Chandler", "isp_type_in_peering_db": "fac", "name": "H5 Data Centers Phoenix", "internet_penetration_percentage": 0.8390000000000001}, {"location": [33.755456, -84.39153], "isp_type_in_peering_db": "ix", "isp_id_in_peering_db": 1668, "state": "GA", "org_name": "CIX-ATL", "name": "CIX-ATL", "city": "Atlanta", "port_capacity": 20000, "internet_penetration_percentage": 0.847}, {"city": "Somerville", "location": [42.376703, -71.079763], "name": "CoreSite - Boston (BO1)", "org_name": "CoreSite LLC", "state": "MA", "isp_type_in_peering_db": "fac", "isp_id_in_peering_db": 584, "port_capacity": 1000, "internet_penetration_percentage": 0.784}, {"location": [32.800955, -96.81955], "isp_type_in_peering_db": "ix", "isp_id_in_peering_db": 3, "state": "TX", "city": "Dallas", "name": "Equinix Dallas", "org_name": "Equinix Dallas", "port_capacity": 300000, "internet_penetration_percentage": 0.8170000000000001}, {"city": "Santa Clara", "name": "Bay Area Internet", "isp_id_in_peering_db": 1513, "location": [37.365431, -121.961738], "isp_type_in_peering_db": "fac", "org_name": "BAIS, INC", "state": "CA", "port_capacity": 1000, "internet_penetration_percentage": 0.838}, {"state": "UT", "location": [40.756316, -111.955031], "isp_type_in_peering_db": "ix", "city": "Salt Lake City", "isp_id_in_peering_db": 829, "name": "SLIX - Salt Lake City Internet Exchange", "port_capacity": 10000, "org_name": "SLIX - Salt Lake City Internet Exchange", "internet_penetration_percentage": 0.877}, {"location": [41.85365, -87.618342], "isp_id_in_peering_db": 7, "name": "Equinix CH1/CH2/CH4 - Chicago", "city": "Chicago", "isp_type_in_peering_db": "fac", "state": "IL", "org_name": "Equinix", "port_capacity": 1000, "internet_penetration_percentage": 0.865}, {"isp_id_in_peering_db": 7345, "org_name": "702 Communications", "location": [46.864784, -96.832308], "name": "702 Communications - Fargo, ND", "city": "Fargo", "isp_type_in_peering_db": "fac", "port_capacity": 1000, "state": "ND", "internet_penetration_percentage": 0.8240000000000001}, {"location": [33.758567, -84.387874], "isp_id_in_peering_db": 940, "state": "GA", "isp_type_in_peering_db": "fac", "name": "Equinix AT1 - Atlanta", "city": "Atlanta", "org_name": "Equinix", "port_capacity": 1000, "internet_penetration_percentage": 0.847}, {"isp_type_in_peering_db": "ix", "org_name": "MidWest-IX - Indy", "location": [39.75988, -86.172275], "port_capacity": 10000, "isp_id_in_peering_db": 986, "state": "IN", "name": "MidWest-IX - Indy", "city": "Indianapolis", "internet_penetration_percentage": 0.815}, {"name": "Equinix Los Angeles", "org_name": "Equinix Los Angeles", "isp_type_in_peering_db": "ix", "city": "Los Angeles", "port_capacity": 100000, "location": [34.047501, -118.2573], "state": "CA", "isp_id_in_peering_db": 4, "internet_penetration_percentage": 0.838}, {"isp_type_in_peering_db": "ix", "isp_id_in_peering_db": 1180, "state": "TX", "location": [32.787212, -96.794219], "city": "Dallas", "name": "MegaIX Dallas", "org_name": "MegaIX Dallas", "port_capacity": 10000, "internet_penetration_percentage": 0.8170000000000001}, {"city": "Madison", "isp_type_in_peering_db": "ix", "state": "WI", "location": [43.073336, -89.386996], "port_capacity": 10000, "isp_id_in_peering_db": 89, "name": "MadIX", "org_name": "MadIX", "internet_penetration_percentage": 0.875}, {"name": "Fiberhub LAS1", "state": "NV", "location": [36.066019, -115.138297], "isp_id_in_peering_db": 1297, "city": "Las Vegas", "isp_type_in_peering_db": "fac", "port_capacity": 1000, "org_name": "Fiberhub", "internet_penetration_percentage": 0.875}, {"isp_id_in_peering_db": 1, "isp_type_in_peering_db": "ix", "port_capacity": 300000, "state": "VA", "location": [39.016363, -77.459023], "city": "Ashburn", "name": "Equinix Ashburn", "org_name": "Equinix Ashburn", "internet_penetration_percentage": 0.852}, {"location": [32.800955, -96.81955], "name": "Equinix DA1 - Dallas", "state": "TX", "city": "Dallas", "isp_type_in_peering_db": "fac", "org_name": "Equinix", "port_capacity": 1000, "isp_id_in_peering_db": 4, "internet_penetration_percentage": 0.8170000000000001}, {"state": "TX", "name": "Consolidated - 811 Louisiana", "city": "Houston", "location": [29.759292, -95.366313], "org_name": "Consolidated Communications, Inc.", "isp_type_in_peering_db": "fac", "port_capacity": 1000, "isp_id_in_peering_db": 3322, "internet_penetration_percentage": 0.8170000000000001}, {"location": [34.035431, -84.06101], "city": "Suwanee", "name": "QTS Atlanta-Suwanee (SUW1)", "state": "GA", "org_name": "QTS Realty Trust, Inc.", "isp_type_in_peering_db": "fac", "isp_id_in_peering_db": 580, "port_capacity": 1000, "internet_penetration_percentage": 0.847}, {"location": [29.429369, -98.486791], "isp_type_in_peering_db": "ix", "port_capacity": 100000, "state": "TX", "isp_id_in_peering_db": 2612, "city": "San Antonio", "name": "SAT-IX (San Antonio)", "org_name": "SAT-IX (San Antonio)", "internet_penetration_percentage": 0.8170000000000001}, {"isp_id_in_peering_db": 2672, "isp_type_in_peering_db": "ix", "name": "DACS-IX East", "location": [39.287414, -76.606104], "org_name": "DACS-IX East", "city": "Baltimore", "state": "MD", "port_capacity": 10000, "internet_penetration_percentage": 0.84}, {"name": "Equinix PH1 - Philadelphia", "state": "PA", "location": [39.959668, -75.161377], "city": "Philadelphia", "isp_type_in_peering_db": "fac", "isp_id_in_peering_db": 146, "org_name": "Equinix", "port_capacity": 1000, "internet_penetration_percentage": 0.782}, {"name": "Equinix MI1 - Miami, NOTA", "location": [25.782648, -80.193157], "city": "Miami", "state": "FL", "isp_id_in_peering_db": 15, "isp_type_in_peering_db": "fac", "org_name": "Equinix", "port_capacity": 1000, "internet_penetration_percentage": 0.8420000000000001}, {"location": [30.331375, -81.662322], "org_name": "GoRACK LLC", "name": "GORACK DATACENTER", "state": "FL", "isp_id_in_peering_db": 1060, "isp_type_in_peering_db": "fac", "port_capacity": 1000, "city": "Jacksonville", "internet_penetration_percentage": 0.8420000000000001}, {"org_name": "Equinix", "city": "Los Angeles", "location": [34.047501, -118.2573], "name": "Equinix LA1 - Los Angeles", "isp_type_in_peering_db": "fac", "state": "CA", "port_capacity": 1000, "isp_id_in_peering_db": 8, "internet_penetration_percentage": 0.838}, {"isp_id_in_peering_db": 1178, "isp_type_in_peering_db": "ix", "state": "VA", "location": [39.022561, -77.455012], "name": "MegaIX Ashburn", "org_name": "MegaIX Ashburn", "city": "Ashburn", "port_capacity": 10000, "internet_penetration_percentage": 0.852}, {"isp_type_in_peering_db": "ix", "name": "OmahaIX", "org_name": "OmahaIX", "state": "NE", "city": "Omaha", "isp_id_in_peering_db": 809, "port_capacity": 10000, "location": [41.257352, -95.938191], "internet_penetration_percentage": 0.831}, {"location": [33.755456, -84.39153], "isp_type_in_peering_db": "ix", "name": "Equinix Atlanta", "isp_id_in_peering_db": 9, "org_name": "Equinix Atlanta", "state": "GA", "city": "Atlanta", "port_capacity": 20000, "internet_penetration_percentage": 0.847}, {"name": "CyrusOne Phoenix", "org_name": "CyrusOne", "state": "AZ", "isp_id_in_peering_db": 1488, "city": "Phoenix", "isp_type_in_peering_db": "fac", "port_capacity": 1000, "location": [33.270744, -111.882056], "internet_penetration_percentage": 0.8390000000000001}, {"name": "Cologix MIN1", "state": "MN", "city": "Minneapolis", "org_name": "Cologix, Inc.", "isp_id_in_peering_db": 803, "location": [44.971385, -93.254494], "isp_type_in_peering_db": "fac", "port_capacity": 1000, "internet_penetration_percentage": 0.856}, {"org_name": "Iron Mountain Data Centers", "location": [33.454411, -111.976435], "state": "AZ", "name": "Iron Mountain Data Center - Phoenix (AZP-1)", "isp_id_in_peering_db": 572, "city": "Phoenix", "isp_type_in_peering_db": "fac", "port_capacity": 1000, "internet_penetration_percentage": 0.8390000000000001}, {"isp_id_in_peering_db": 2975, "org_name": "H5 Data Centers", "city": "Cleveland", "location": [41.506167, -81.68395], "state": "OH", "name": "H5 Data Centers Cleveland", "isp_type_in_peering_db": "fac", "port_capacity": 1000, "internet_penetration_percentage": 0.794}, {"state": "MI", "location": [42.471634, -83.238056], "city": "Southfield", "org_name": "123.Net, Inc.", "isp_type_in_peering_db": "fac", "port_capacity": 1000, "isp_id_in_peering_db": 2084, "name": "123.NET - DC1 - 24700 Northwestern Hwy.", "internet_penetration_percentage": 0.812}, {"isp_type_in_peering_db": "ix", "state": "PA", "location": [39.959668, -75.161377], "name": "PhillyIX", "org_name": "PhillyIX", "city": "Philadelphia", "isp_id_in_peering_db": 2088, "port_capacity": 10000, "internet_penetration_percentage": 0.782}, {"location": [32.800703, -96.81919], "isp_id_in_peering_db": 505, "state": "TX", "city": "Dallas", "isp_type_in_peering_db": "fac", "org_name": "Equinix", "port_capacity": 1000, "name": "Equinix Dallas (previously Infomart Dallas)", "internet_penetration_percentage": 0.8170000000000001}, {"location": [41.876212, -87.631453], "isp_id_in_peering_db": 226, "isp_type_in_peering_db": "ix", "city": "Chicago", "name": "CoreSite - Any2 Chicago", "org_name": "CoreSite - Any2 Chicago", "state": "IL", "port_capacity": 10000, "internet_penetration_percentage": 0.865}, {"port_capacity": 1000, "city": "Nashville", "org_name": "EdgeConneX", "isp_type_in_peering_db": "fac", "isp_id_in_peering_db": 1924, "name": "EdgeConneX Nashville (EDCNAS01)", "location": [36.144881, -86.701721], "state": "TN", "internet_penetration_percentage": 0.782}, {"isp_id_in_peering_db": 3363, "state": "TX", "org_name": "QTS Realty Trust, Inc.", "location": [32.89709, -96.982993], "name": "QTS Irving - Dallas (DFW1)", "isp_type_in_peering_db": "fac", "port_capacity": 1000, "city": "Irving", "internet_penetration_percentage": 0.8170000000000001}, {"isp_id_in_peering_db": 20, "location": [37.334147, -121.891649], "org_name": "CoreSite LLC", "name": "CoreSite - San Jose (SV1)", "city": "San Jose", "isp_type_in_peering_db": "fac", "state": "CA", "port_capacity": 1000, "internet_penetration_percentage": 0.838}, {"state": "NY", "isp_id_in_peering_db": 16, "org_name": "Digital Realty", "location": [40.741355, -74.003203], "isp_type_in_peering_db": "fac", "name": "Digital Realty NYC (111 8th Ave)", "port_capacity": 1000, "city": "New York", "internet_penetration_percentage": 0.802}, {"isp_id_in_peering_db": 917, "state": "AZ", "name": "PhoenixNAP", "city": "Phoenix", "org_name": "PhoenixNAP", "isp_type_in_peering_db": "fac", "port_capacity": 1000, "location": [33.41601, -112.009445], "internet_penetration_percentage": 0.8390000000000001}, {"org_name": "EdgeConneX", "state": "NV", "location": [36.065272, -115.130816], "isp_id_in_peering_db": 1918, "city": "Las Vegas", "isp_type_in_peering_db": "fac", "port_capacity": 1000, "name": "EdgeConneX Las Vegas (EDCLAS01)", "internet_penetration_percentage": 0.875}, {"name": "RVA-IX", "org_name": "RVA-IX", "isp_type_in_peering_db": "ix", "state": "VA", "city": "Ashland", "isp_id_in_peering_db": 1002, "location": [37.698641, -77.436436], "port_capacity": 10000, "internet_penetration_percentage": 0.852}, {"location": [40.753599, -73.99198], "name": "Equinix NY9 - New York, 111 8th Avenue", "state": "NY", "isp_id_in_peering_db": 38, "isp_type_in_peering_db": "fac", "org_name": "Equinix", "port_capacity": 1000, "city": "New York", "internet_penetration_percentage": 0.802}, {"org_name": "RagingWire Data Centers - NTT Communications", "isp_id_in_peering_db": 1110, "location": [38.650318, -121.489184], "name": "RagingWire CA1 - NTT", "isp_type_in_peering_db": "fac", "state": "CA", "port_capacity": 1000, "city": "Sacramento", "internet_penetration_percentage": 0.838}, {"org_name": "EdgeConneX", "name": "EdgeConneX Denver (EDCDEN01)", "city": "Englewood", "location": [39.561073, -104.826671], "isp_type_in_peering_db": "fac", "state": "CO", "port_capacity": 1000, "isp_id_in_peering_db": 1875, "internet_penetration_percentage": 0.795}, {"state": "MN", "name": "NP Belle Plaine (MSP1)", "location": [44.624122, -93.778109], "org_name": "Neutral Path Communications, LLC", "isp_type_in_peering_db": "fac", "city": "Belle Plaine", "port_capacity": 1000, "isp_id_in_peering_db": 2733, "internet_penetration_percentage": 0.856}, {"location": [40.753599, -73.99198], "isp_type_in_peering_db": "ix", "state": "NY", "port_capacity": 100000, "name": "Equinix New York", "isp_id_in_peering_db": 12, "org_name": "Equinix New York", "city": "New York", "internet_penetration_percentage": 0.802}, {"org_name": "PIT-IX", "isp_type_in_peering_db": "ix", "state": "PA", "location": [40.451062, -80.005186], "isp_id_in_peering_db": 1999, "city": "Pittsburgh", "port_capacity": 20000, "name": "PIT-IX", "internet_penetration_percentage": 0.782}, {"location": [39.100941, -94.581036], "isp_type_in_peering_db": "ix", "port_capacity": 100000, "state": "MO", "city": "Kansas City", "name": "KCIX", "isp_id_in_peering_db": 249, "org_name": "KCIX", "internet_penetration_percentage": 0.833}, {"isp_id_in_peering_db": 17, "isp_type_in_peering_db": "ix", "location": [25.782648, -80.193157], "city": "Miami", "port_capacity": 100000, "name": "Equinix Miami IX", "org_name": "Equinix Miami IX", "state": "FL", "internet_penetration_percentage": 0.8420000000000001}, {"state": "UT", "org_name": "Flexential Corp.", "city": "Salt Lake City", "isp_id_in_peering_db": 2445, "isp_type_in_peering_db": "fac", "port_capacity": 1000, "name": "Flexential - Salt Lake City/Downtown (SLC04)", "location": [40.756302, -111.954307], "internet_penetration_percentage": 0.877}, {"org_name": "Lifeline Data Centers", "name": "Lifeline Henry Street", "isp_id_in_peering_db": 186, "location": [39.75988, -86.172275], "isp_type_in_peering_db": "fac", "state": "IN", "port_capacity": 1000, "city": "Indianapolis", "internet_penetration_percentage": 0.815}, {"isp_id_in_peering_db": 563, "isp_type_in_peering_db": "ix", "name": "JXIX", "location": [30.331375, -81.662322], "org_name": "JXIX", "state": "FL", "port_capacity": 10000, "city": "Jacksonville", "internet_penetration_percentage": 0.8420000000000001}, {"isp_id_in_peering_db": 23, "name": "Digital Realty SFO (365 Main)", "city": "San Francisco", "org_name": "Digital Realty", "isp_type_in_peering_db": "fac", "state": "CA", "port_capacity": 1000, "location": [37.788669, -122.390509], "internet_penetration_percentage": 0.838}, {"location": [33.755456, -84.39153], "isp_id_in_peering_db": 125, "name": "Digital Realty ATL (56 Marietta)", "state": "GA", "org_name": "Digital Realty", "isp_type_in_peering_db": "fac", "city": "Atlanta", "port_capacity": 1000, "internet_penetration_percentage": 0.847}, {"isp_type_in_peering_db": "ix", "isp_id_in_peering_db": 1212, "location": [32.37803, -86.303007], "state": "AL", "port_capacity": 20000, "city": "Montgomery", "name": "MGMix Montgomery", "org_name": "MGMix Montgomery", "internet_penetration_percentage": 0.787}, {"name": "SIX Seattle", "org_name": "SIX Seattle", "location": [47.614347, -122.338883], "isp_type_in_peering_db": "ix", "port_capacity": 100000, "isp_id_in_peering_db": 13, "city": "Seattle", "state": "WA", "internet_penetration_percentage": 0.885}, {"isp_id_in_peering_db": 1476, "org_name": "CyrusOne", "state": "TX", "city": "Houston", "isp_type_in_peering_db": "fac", "port_capacity": 1000, "name": "CyrusOne Houston West", "location": [29.844182, -95.556656], "internet_penetration_percentage": 0.8170000000000001}, {"location": [38.950631, -77.364541], "isp_type_in_peering_db": "ix", "state": "VA", "city": "Reston", "name": "LINX NoVA", "isp_id_in_peering_db": 777, "org_name": "LINX NoVA", "port_capacity": 10000, "internet_penetration_percentage": 0.852}, {"isp_id_in_peering_db": 3071, "name": "H5 Data Centers Denver", "org_name": "H5 Data Centers", "location": [39.618102, -104.891509], "isp_type_in_peering_db": "fac", "state": "CO", "port_capacity": 1000, "city": "Greenwood Village", "internet_penetration_percentage": 0.795}, {"name": "CLT2", "state": "NC", "org_name": "LUMOS Networks, Inc.", "city": "Charlotte", "isp_type_in_peering_db": "fac", "port_capacity": 1000, "isp_id_in_peering_db": 1724, "location": [35.193762, -80.938485], "internet_penetration_percentage": 0.8140000000000001}, {"city": "Sandston", "state": "VA", "org_name": "QTS Realty Trust, Inc.", "isp_id_in_peering_db": 2365, "isp_type_in_peering_db": "fac", "location": [37.488073, -77.244177], "port_capacity": 1000, "name": "QTS Richmond (RIC1)", "internet_penetration_percentage": 0.852}, {"city": "Portland", "port_capacity": 30000, "isp_type_in_peering_db": "ix", "state": "OR", "location": [45.521366, -122.680792], "isp_id_in_peering_db": 165, "name": "NWAX", "org_name": "NWAX", "internet_penetration_percentage": 0.8740000000000001}, {"name": "Equinix SE2/SE3 - Seattle", "isp_id_in_peering_db": 86, "city": "Seattle", "isp_type_in_peering_db": "fac", "org_name": "Equinix", "port_capacity": 1000, "location": [47.614358, -122.338864], "state": "WA", "internet_penetration_percentage": 0.885}, {"city": "Boston", "isp_type_in_peering_db": "ix", "name": "Boston Internet Exchange", "org_name": "Boston Internet Exchange", "isp_id_in_peering_db": 565, "state": "MA", "port_capacity": 30000, "location": [42.354692, -71.060266], "internet_penetration_percentage": 0.784}, {"isp_type_in_peering_db": "ix", "location": [25.782648, -80.193157], "city": "Miami", "port_capacity": 100000, "isp_id_in_peering_db": 954, "name": "FL-IX", "state": "FL", "org_name": "FL-IX", "internet_penetration_percentage": 0.8420000000000001}, {"city": "Portland", "state": "OR", "org_name": "Alco Properties", "isp_id_in_peering_db": 275, "name": "The Pittock", "location": [45.521366, -122.680792], "isp_type_in_peering_db": "fac", "port_capacity": 1000, "internet_penetration_percentage": 0.8740000000000001}, {"location": [40.72, -74.004561], "state": "NY", "org_name": "CoreSite LLC", "isp_type_in_peering_db": "fac", "isp_id_in_peering_db": 670, "port_capacity": 1000, "city": "New York", "name": "CoreSite - New York (NY1)", "internet_penetration_percentage": 0.802}, {"location": [42.448537, -83.261226], "name": "EdgeConneX Detroit (EDCDET01)", "org_name": "EdgeConneX", "city": "Southfield", "isp_id_in_peering_db": 1927, "isp_type_in_peering_db": "fac", "port_capacity": 1000, "state": "MI", "internet_penetration_percentage": 0.812}, {"name": "Iron Mountain Data Center - New Jersey (NJE-1)", "org_name": "Iron Mountain Data Centers", "location": [40.520803, -74.347184], "isp_id_in_peering_db": 2011, "city": "Edison", "state": "NJ", "isp_type_in_peering_db": "fac", "port_capacity": 1000, "internet_penetration_percentage": 0.8240000000000001}, {"name": "FCIX", "org_name": "FCIX", "isp_type_in_peering_db": "ix", "location": [37.471829, -121.920299], "city": "Fremont", "isp_id_in_peering_db": 2163, "state": "CA", "port_capacity": 10000, "internet_penetration_percentage": 0.838}, {"location": [47.614347, -122.338883], "isp_id_in_peering_db": 71, "name": "Westin Building Seattle", "city": "Seattle", "org_name": "The Westin Building", "isp_type_in_peering_db": "fac", "port_capacity": 1000, "state": "WA", "internet_penetration_percentage": 0.885}, {"name": "DE-CIX Dallas", "isp_type_in_peering_db": "ix", "org_name": "DE-CIX Dallas", "port_capacity": 100000, "state": "TX", "location": [32.787212, -96.794219], "city": "Dallas", "isp_id_in_peering_db": 1249, "internet_penetration_percentage": 0.8170000000000001}, {"name": "iConnect Missoula", "location": [46.87101, -113.989835], "city": "Missoula", "org_name": "iConnect Montana", "isp_id_in_peering_db": 381, "isp_type_in_peering_db": "fac", "state": "MT", "port_capacity": 1000, "internet_penetration_percentage": 0.7809999999999999}, {"isp_id_in_peering_db": 1, "name": "Equinix DC1-DC15 - Ashburn", "state": "VA", "location": [39.016363, -77.459023], "city": "Ashburn", "isp_type_in_peering_db": "fac", "org_name": "Equinix", "port_capacity": 1000, "internet_penetration_percentage": 0.852}, {"name": "BigApe", "org_name": "BigApe", "location": [40.717723, -74.008299], "isp_type_in_peering_db": "ix", "state": "NY", "isp_id_in_peering_db": 151, "port_capacity": 10000, "city": "New York", "internet_penetration_percentage": 0.802}, {"city": "Denver", "org_name": "910Telecom", "location": [39.745604, -104.99567], "isp_id_in_peering_db": 2079, "isp_type_in_peering_db": "fac", "state": "CO", "name": "910Telecom Denver", "port_capacity": 1000, "internet_penetration_percentage": 0.795}, {"org_name": "ChIX", "location": [41.85365, -87.618342], "isp_type_in_peering_db": "ix", "city": "Chicago", "port_capacity": 40000, "state": "IL", "isp_id_in_peering_db": 239, "name": "ChIX", "internet_penetration_percentage": 0.865}, {"org_name": "Equinix", "name": "Equinix SV1/SV5/SV10 - Silicon Valley, San Jose", "location": [37.241767, -121.782967], "isp_id_in_peering_db": 6, "city": "San Jose", "isp_type_in_peering_db": "fac", "state": "CA", "port_capacity": 1000, "internet_penetration_percentage": 0.838}, {"city": "Secaucus", "isp_id_in_peering_db": 36, "name": "Equinix NY2/NY4/NY5/NY6 - New York, Secaucus", "location": [40.778534, -74.072237], "state": "NJ", "isp_type_in_peering_db": "fac", "org_name": "Equinix", "port_capacity": 1000, "internet_penetration_percentage": 0.8240000000000001}, {"org_name": "RagingWire Data Centers - NTT Communications", "state": "VA", "name": "RagingWire VA1 - NTT", "location": [39.022561, -77.455012], "isp_id_in_peering_db": 1112, "city": "Ashburn", "isp_type_in_peering_db": "fac", "port_capacity": 1000, "internet_penetration_percentage": 0.852}, {"city": "Boston", "isp_id_in_peering_db": 219, "name": "Markley Group One Summer Street Boston", "org_name": "Markley Group, LLC", "state": "MA", "isp_type_in_peering_db": "fac", "location": [42.354692, -71.060266], "port_capacity": 1000, "internet_penetration_percentage": 0.784}, {"org_name": "Iron Mountain Data Centers", "state": "VA", "name": "Iron Mountain Data Center - Manassas (VA-1)", "isp_type_in_peering_db": "fac", "location": [38.778046, -77.547069], "isp_id_in_peering_db": 5373, "port_capacity": 1000, "city": "Manassas", "internet_penetration_percentage": 0.852}, {"location": [41.876212, -87.631453], "name": "CoreSite - Chicago (CH1)", "city": "Chicago", "isp_id_in_peering_db": 440, "org_name": "CoreSite LLC", "isp_type_in_peering_db": "fac", "state": "IL", "port_capacity": 1000, "internet_penetration_percentage": 0.865}, {"isp_id_in_peering_db": 547, "location": [37.471829, -121.920299], "city": "Fremont", "org_name": "Hurricane Electric", "name": "Hurricane Electric Fremont 2", "isp_type_in_peering_db": "fac", "state": "CA", "port_capacity": 1000, "internet_penetration_percentage": 0.838}, {"name": "DRF IX", "isp_type_in_peering_db": "ix", "org_name": "DRF IX", "isp_id_in_peering_db": 267, "state": "HI", "city": "Honolulu", "location": [21.335678, -157.917855], "port_capacity": 10000, "internet_penetration_percentage": 0.836}, {"city": "Carrollton", "org_name": "CyrusOne", "state": "TX", "name": "CyrusOne Dallas (Carrollton)", "isp_id_in_peering_db": 1481, "location": [32.991929, -96.930465], "isp_type_in_peering_db": "fac", "port_capacity": 1000, "internet_penetration_percentage": 0.8170000000000001}, {"city": "Denver", "isp_type_in_peering_db": "ix", "isp_id_in_peering_db": 254, "port_capacity": 60000, "name": "CoreSite - Any2 Denver ", "org_name": "CoreSite - Any2 Denver ", "state": "CO", "location": [39.745636, -104.995636], "internet_penetration_percentage": 0.795}, {"location": [41.85365, -87.618342], "isp_type_in_peering_db": "ix", "city": "Chicago", "name": "Equinix Chicago", "org_name": "Equinix Chicago", "isp_id_in_peering_db": 2, "state": "IL", "port_capacity": 400000, "internet_penetration_percentage": 0.865}, {"org_name": "Equinix", "name": "Equinix LA3/LA4 - Los Angeles, El Segundo", "location": [33.921239, -118.383778], "isp_id_in_peering_db": 333, "city": "El Segundo", "isp_type_in_peering_db": "fac", "state": "CA", "port_capacity": 1000, "internet_penetration_percentage": 0.838}, {"isp_type_in_peering_db": "ix", "name": "Phoenix IX", "state": "AZ", "org_name": "Phoenix IX", "isp_id_in_peering_db": 662, "location": [33.452003, -112.072042], "city": "Phoenix", "port_capacity": 40000, "internet_penetration_percentage": 0.8390000000000001}, {"isp_id_in_peering_db": 3078, "org_name": "H5 Data Centers", "state": "GA", "location": [33.765138, -84.383731], "isp_type_in_peering_db": "fac", "name": "H5 Data Centers Atlanta", "city": "Atlanta", "port_capacity": 1000, "internet_penetration_percentage": 0.847}, {"location": [33.777526, -84.421036], "state": "GA", "org_name": "QTS Realty Trust, Inc.", "name": "QTS Atlanta-Metro (ATL1)", "isp_id_in_peering_db": 581, "isp_type_in_peering_db": "fac", "city": "Atlanta", "port_capacity": 1000, "internet_penetration_percentage": 0.847}, {"city": "Fremont", "org_name": "Hurricane Electric", "location": [37.489879, -121.931012], "isp_type_in_peering_db": "fac", "state": "CA", "port_capacity": 1000, "name": "Hurricane Electric Fremont 1", "isp_id_in_peering_db": 702, "internet_penetration_percentage": 0.838}, {"location": [40.717723, -74.008299], "name": "Digital Realty NYC (60 Hudson)", "state": "NY", "isp_id_in_peering_db": 10, "org_name": "Digital Realty", "isp_type_in_peering_db": "fac", "port_capacity": 1000, "city": "New York", "internet_penetration_percentage": 0.802}, {"city": "Tampa", "org_name": "TPAIX", "location": [27.947729, -82.459331], "isp_id_in_peering_db": 833, "isp_type_in_peering_db": "ix", "state": "FL", "port_capacity": 20000, "name": "TPAIX", "internet_penetration_percentage": 0.8420000000000001}, {"name": "MidWest-IX - Cleveland", "isp_id_in_peering_db": 2286, "org_name": "MidWest-IX - Cleveland", "isp_type_in_peering_db": "ix", "city": "Cleveland", "location": [41.506167, -81.68395], "state": "OH", "port_capacity": 20000, "internet_penetration_percentage": 0.794}, {"city": "Columbus", "location": [40.116491, -83.001985], "name": "Cologix COL2", "org_name": "Cologix, Inc.", "isp_id_in_peering_db": 2378, "state": "OH", "isp_type_in_peering_db": "fac", "port_capacity": 1000, "internet_penetration_percentage": 0.794}, {"isp_type_in_peering_db": "ix", "city": "Los Angeles", "location": [34.047942, -118.255564], "isp_id_in_peering_db": 1175, "name": "MegaIX Los Angeles", "org_name": "MegaIX Los Angeles", "state": "CA", "port_capacity": 10000, "internet_penetration_percentage": 0.838}, {"isp_id_in_peering_db": 338, "isp_type_in_peering_db": "ix", "name": "CoreSite - Any2 Silicon Valley", "location": [37.334147, -121.891649], "org_name": "CoreSite - Any2 Silicon Valley", "city": "San Jose", "state": "CA", "port_capacity": 10000, "internet_penetration_percentage": 0.838}, {"isp_type_in_peering_db": "ix", "state": "AZ", "location": [33.452003, -112.072042], "city": "Phoenix", "port_capacity": 10000, "isp_id_in_peering_db": 256, "name": "Digital Realty Phoenix", "org_name": "Digital Realty Phoenix", "internet_penetration_percentage": 0.8390000000000001}, {"isp_type_in_peering_db": "ix", "name": "Equinix Seattle", "org_name": "Equinix Seattle", "city": "Seattle", "port_capacity": 30000, "isp_id_in_peering_db": 11, "location": [47.614358, -122.338864], "state": "WA", "internet_penetration_percentage": 0.885}, {"city": "Denver", "isp_id_in_peering_db": 389, "org_name": "CoreSite LLC", "isp_type_in_peering_db": "fac", "state": "CO", "port_capacity": 1000, "location": [39.745636, -104.995636], "name": "CoreSite - Denver (DE1)", "internet_penetration_percentage": 0.795}, {"org_name": "Netrality Data Centers", "name": "Netrality Houston - 1301 Fannin", "state": "TX", "city": "Houston", "location": [29.753242, -95.365882], "isp_type_in_peering_db": "fac", "port_capacity": 1000, "isp_id_in_peering_db": 409, "internet_penetration_percentage": 0.8170000000000001}, {"state": "MN", "port_capacity": 1000, "city": "Rochester", "isp_id_in_peering_db": 1327, "location": [44.020868, -92.462576], "org_name": "Neutral Path Communications, LLC", "isp_type_in_peering_db": "fac", "name": "NP Rochester", "internet_penetration_percentage": 0.856}, {"city": "Denver", "org_name": "Iron Mountain Data Centers", "location": [39.777353, -104.968212], "name": "Iron Mountain Data Center - Denver (DEN-1)", "isp_id_in_peering_db": 1896, "isp_type_in_peering_db": "fac", "state": "CO", "port_capacity": 1000, "internet_penetration_percentage": 0.795}, {"isp_id_in_peering_db": 1955, "city": "Miami", "location": [25.775869, -80.193129], "state": "FL", "name": "Interconnect Miami", "isp_type_in_peering_db": "fac", "port_capacity": 1000, "org_name": "Interconnect Miami", "internet_penetration_percentage": 0.8420000000000001}, {"isp_id_in_peering_db": 23, "isp_type_in_peering_db": "ix", "city": "Los Angeles", "name": "NYIIX Los Angeles", "org_name": "NYIIX Los Angeles", "location": [34.047942, -118.255564], "state": "CA", "port_capacity": 10000, "internet_penetration_percentage": 0.838}, {"city": "Portland", "name": "MFC Portland Regen Site", "location": [43.658074, -70.29982], "isp_id_in_peering_db": 3860, "state": "ME", "isp_type_in_peering_db": "fac", "org_name": "NNENIX", "port_capacity": 1000, "internet_penetration_percentage": 0.851}, {"location": [36.162626, -86.778674], "isp_type_in_peering_db": "ix", "city": "Nashville", "isp_id_in_peering_db": 1038, "name": "NashIX", "org_name": "NashIX", "port_capacity": 10000, "state": "TN", "internet_penetration_percentage": 0.782}, {"city": "Los Angeles", "name": "CoreSite - Los Angeles (LA1) One Wilshire", "isp_id_in_peering_db": 19, "org_name": "CoreSite LLC", "location": [34.047942, -118.255564], "isp_type_in_peering_db": "fac", "state": "CA", "port_capacity": 1000, "internet_penetration_percentage": 0.838}, {"isp_id_in_peering_db": 7, "isp_type_in_peering_db": "ix", "location": [37.445896, -122.160775], "port_capacity": 100000, "name": "Equinix Palo Alto", "org_name": "Equinix Palo Alto", "state": "CA", "city": "Palo Alto", "internet_penetration_percentage": 0.838}, {"state": "OR", "isp_id_in_peering_db": 1922, "org_name": "EdgeConneX", "location": [45.548296, -122.907473], "name": "EdgeConneX Portland (EDCPOR01)", "city": "Hillsboro", "isp_type_in_peering_db": "fac", "port_capacity": 1000, "internet_penetration_percentage": 0.8740000000000001}, {"isp_id_in_peering_db": 4292, "org_name": "DataBank, Ltd.", "state": "PA", "location": [40.451062, -80.005186], "port_capacity": 1000, "isp_type_in_peering_db": "fac", "city": "Pittsburgh", "name": "DataBank Pittsburgh (PIT1)", "internet_penetration_percentage": 0.782}, {"location": [33.755456, -84.39153], "isp_type_in_peering_db": "ix", "name": "Digital Realty Atlanta", "org_name": "Digital Realty Atlanta", "port_capacity": 100000, "isp_id_in_peering_db": 22, "state": "GA", "city": "Atlanta", "internet_penetration_percentage": 0.847}, {"isp_id_in_peering_db": 428, "isp_type_in_peering_db": "ix", "port_capacity": 2000, "city": "Mountain View", "name": "NASA-AIX", "state": "CA", "org_name": "NASA-AIX", "location": [37.420567, -122.040197], "internet_penetration_percentage": 0.838}, {"location": [47.614347, -122.338883], "isp_type_in_peering_db": "ix", "port_capacity": 100000, "name": "SIX Seattle (Jumbo)", "org_name": "SIX Seattle (Jumbo)", "isp_id_in_peering_db": 1285, "city": "Seattle", "state": "WA", "internet_penetration_percentage": 0.885}, {"city": "Santa Clara", "name": "vXchnge Santa Clara (CA01)", "isp_id_in_peering_db": 3921, "location": [37.365431, -121.961738], "isp_type_in_peering_db": "fac", "state": "CA", "port_capacity": 1000, "org_name": "vXchnge", "internet_penetration_percentage": 0.838}, {"isp_id_in_peering_db": 2447, "org_name": "Flexential Corp.", "state": "OR", "city": "Hillsboro", "name": "Flexential - Portland/Hillsboro 2 (PDX02)", "isp_type_in_peering_db": "fac", "location": [45.557854, -122.917023], "port_capacity": 1000, "internet_penetration_percentage": 0.8740000000000001}, {"name": "165 Halsey Meet-Me Room", "org_name": "Tishman Real Estate Services", "isp_id_in_peering_db": 350, "port_capacity": 1000, "isp_type_in_peering_db": "fac", "state": "NJ", "city": "Newark", "location": [40.736844, -74.173402], "internet_penetration_percentage": 0.8240000000000001}, {"isp_id_in_peering_db": 332, "location": [40.72, -74.004561], "isp_type_in_peering_db": "ix", "state": "NY", "name": "CoreSite - Any2 New York", "org_name": "CoreSite - Any2 New York", "port_capacity": 10000, "city": "New York", "internet_penetration_percentage": 0.802}, {"isp_id_in_peering_db": 2961, "state": "NV", "location": [39.469306, -119.76983], "org_name": "Roller Network LLC", "isp_type_in_peering_db": "fac", "name": "Roller Network", "port_capacity": 1000, "city": "Reno", "internet_penetration_percentage": 0.875}], "prefixes": 296647, "total_prefixes_in_globe": 7995542, "address_space": 468834363, "total_addresses_in_globe": 19498300372, "neighbor": 8092, "info_type": "transit"}}