{"data": {"name": "TWC-7843-BB", "traffic_ratio": "HEAVY INBOUND", "pop_list": [{"city": "Ashburn", "isp_id_in_peering_db": 1, "isp_type_in_peering_db": "ix", "name": "Equinix Ashburn", "org_name": "Equinix Ashburn", "state": "VA", "port_capacity": 200000, "location": [39.016363, -77.459023], "internet_penetration_percentage": 0.852}, {"state": "WA", "location": [47.614358, -122.338864], "isp_type_in_peering_db": "ix", "port_capacity": 100000, "name": "Equinix Seattle", "org_name": "Equinix Seattle", "city": "Seattle", "isp_id_in_peering_db": 11, "internet_penetration_percentage": 0.885}, {"isp_id_in_peering_db": 13, "state": "WA", "location": [47.614347, -122.338883], "isp_type_in_peering_db": "ix", "name": "SIX Seattle", "org_name": "SIX Seattle", "city": "Seattle", "port_capacity": 200000, "internet_penetration_percentage": 0.885}, {"isp_id_in_peering_db": 4, "city": "Los Angeles", "name": "Equinix Los Angeles", "org_name": "Equinix Los Angeles", "isp_type_in_peering_db": "ix", "location": [34.047501, -118.2573], "state": "CA", "port_capacity": 200000, "internet_penetration_percentage": 0.838}, {"city": "Minneapolis", "port_capacity": 1000, "org_name": "Cologix, Inc.", "state": "MN", "name": "Cologix MIN3", "isp_id_in_peering_db": 3312, "location": [44.971385, -93.254494], "isp_type_in_peering_db": "fac", "internet_penetration_percentage": 0.856}, {"org_name": "LINX NoVA", "location": [38.950631, -77.364541], "isp_type_in_peering_db": "ix", "isp_id_in_peering_db": 777, "name": "LINX NoVA", "state": "VA", "city": "Reston", "port_capacity": 30000, "internet_penetration_percentage": 0.852}, {"name": "Equinix SE2/SE3 - Seattle", "port_capacity": 1000, "state": "WA", "location": [47.614358, -122.338864], "isp_id_in_peering_db": 86, "isp_type_in_peering_db": "fac", "city": "Seattle", "org_name": "Equinix", "internet_penetration_percentage": 0.885}, {"port_capacity": 10000, "state": "HI", "isp_id_in_peering_db": 267, "isp_type_in_peering_db": "ix", "city": "Honolulu", "name": "DRF IX", "org_name": "DRF IX", "location": [21.335678, -157.917855], "internet_penetration_percentage": 0.836}, {"port_capacity": 1000, "name": "Netrality St. Louis - 900 Walnut", "location": [38.625536, -90.195238], "org_name": "Netrality Data Centers", "state": "MO", "city": "St. Louis", "isp_id_in_peering_db": 332, "isp_type_in_peering_db": "fac", "internet_penetration_percentage": 0.833}, {"name": "Equinix Chicago", "org_name": "Equinix Chicago", "isp_type_in_peering_db": "ix", "location": [41.85365, -87.618342], "city": "Chicago", "state": "IL", "isp_id_in_peering_db": 2, "port_capacity": 200000, "internet_penetration_percentage": 0.865}, {"port_capacity": 1000, "isp_id_in_peering_db": 7, "location": [41.85365, -87.618342], "name": "Equinix CH1/CH2/CH4 - Chicago", "isp_type_in_peering_db": "fac", "city": "Chicago", "state": "IL", "org_name": "Equinix", "internet_penetration_percentage": 0.865}, {"port_capacity": 1000, "org_name": "DRFortress LLC", "name": "DRFortress HNL", "state": "HI", "isp_id_in_peering_db": 2526, "city": "Honolulu", "isp_type_in_peering_db": "fac", "location": [21.335678, -157.917855], "internet_penetration_percentage": 0.836}, {"city": "Minneapolis", "port_capacity": 10000, "name": "MICE", "org_name": "MICE", "state": "MN", "isp_type_in_peering_db": "ix", "isp_id_in_peering_db": 446, "location": [44.971385, -93.254494], "internet_penetration_percentage": 0.856}, {"port_capacity": 1000, "city": "Houston", "location": [29.844182, -95.556656], "name": "CyrusOne Houston West", "state": "TX", "org_name": "CyrusOne", "isp_type_in_peering_db": "fac", "isp_id_in_peering_db": 1476, "internet_penetration_percentage": 0.8170000000000001}, {"location": [41.898951, -87.644642], "isp_id_in_peering_db": 1730, "port_capacity": 1000, "name": "Level(3) Chicago Kingsbury", "org_name": "Level 3 Communications, LLC", "city": "Chicago", "state": "IL", "isp_type_in_peering_db": "fac", "internet_penetration_percentage": 0.865}, {"port_capacity": 1000, "location": [34.047942, -118.255564], "city": "Los Angeles", "isp_id_in_peering_db": 19, "org_name": "CoreSite LLC", "name": "CoreSite - Los Angeles (LA1) One Wilshire", "state": "CA", "isp_type_in_peering_db": "fac", "internet_penetration_percentage": 0.838}, {"city": "Atlanta", "isp_id_in_peering_db": 22, "state": "GA", "isp_type_in_peering_db": "ix", "location": [33.755456, -84.39153], "port_capacity": 100000, "name": "Digital Realty Atlanta", "org_name": "Digital Realty Atlanta", "internet_penetration_percentage": 0.847}, {"isp_id_in_peering_db": 4, "port_capacity": 1000, "city": "Dallas", "location": [32.800955, -96.81955], "name": "Equinix DA1 - Dallas", "state": "TX", "isp_type_in_peering_db": "fac", "org_name": "Equinix", "internet_penetration_percentage": 0.8170000000000001}, {"name": "Equinix MI1 - Miami, NOTA", "port_capacity": 1000, "location": [25.782648, -80.193157], "city": "Miami", "isp_id_in_peering_db": 15, "isp_type_in_peering_db": "fac", "state": "FL", "org_name": "Equinix", "internet_penetration_percentage": 0.8420000000000001}, {"port_capacity": 1000, "city": "Atlanta", "isp_id_in_peering_db": 125, "location": [33.755456, -84.39153], "org_name": "Digital Realty", "state": "GA", "name": "Digital Realty ATL (56 Marietta)", "isp_type_in_peering_db": "fac", "internet_penetration_percentage": 0.847}, {"port_capacity": 1000, "city": "Ashburn", "isp_id_in_peering_db": 1, "name": "Equinix DC1-DC15 - Ashburn", "isp_type_in_peering_db": "fac", "state": "VA", "location": [39.016363, -77.459023], "org_name": "Equinix", "internet_penetration_percentage": 0.852}, {"port_capacity": 1000, "city": "Los Angeles", "isp_type_in_peering_db": "fac", "name": "Equinix LA1 - Los Angeles", "isp_id_in_peering_db": 8, "location": [34.047501, -118.2573], "state": "CA", "org_name": "Equinix", "internet_penetration_percentage": 0.838}, {"port_capacity": 20000, "name": "Equinix New York", "org_name": "Equinix New York", "city": "New York", "isp_type_in_peering_db": "ix", "location": [40.753599, -73.99198], "isp_id_in_peering_db": 12, "state": "NY", "internet_penetration_percentage": 0.802}, {"port_capacity": 1000, "city": "New York", "isp_id_in_peering_db": 16, "name": "Digital Realty NYC (111 8th Ave)", "org_name": "Digital Realty", "state": "NY", "location": [40.741355, -74.003203], "isp_type_in_peering_db": "fac", "internet_penetration_percentage": 0.802}, {"port_capacity": 1000, "name": "Equinix SV1/SV5/SV10 - Silicon Valley, San Jose", "city": "San Jose", "isp_id_in_peering_db": 6, "isp_type_in_peering_db": "fac", "location": [37.241767, -121.782967], "state": "CA", "org_name": "Equinix", "internet_penetration_percentage": 0.838}, {"org_name": "365 Data Centers", "port_capacity": 1000, "location": [27.949981, -82.458383], "isp_id_in_peering_db": 2086, "city": "Tampa", "name": "365 Data Centers Tampa (TA1)", "state": "FL", "isp_type_in_peering_db": "fac", "internet_penetration_percentage": 0.8420000000000001}, {"port_capacity": 1000, "name": "Netrality St. Louis - 210 N Tucker", "location": [38.629332, -90.197305], "org_name": "Netrality Data Centers", "state": "MO", "city": "St. Louis", "isp_id_in_peering_db": 1978, "isp_type_in_peering_db": "fac", "internet_penetration_percentage": 0.833}, {"port_capacity": 1000, "isp_id_in_peering_db": 389, "city": "Denver", "state": "CO", "location": [39.745636, -104.995636], "org_name": "CoreSite LLC", "name": "CoreSite - Denver (DE1)", "isp_type_in_peering_db": "fac", "internet_penetration_percentage": 0.795}, {"port_capacity": 1000, "location": [38.908422, -77.219692], "city": "Vienna", "name": "Equinix DC7 - Ashburn, Vienna", "isp_type_in_peering_db": "fac", "isp_id_in_peering_db": 88, "state": "VA", "org_name": "Equinix", "internet_penetration_percentage": 0.852}, {"city": "Dallas", "name": "Equinix Dallas", "location": [32.800955, -96.81955], "org_name": "Equinix Dallas", "isp_id_in_peering_db": 3, "isp_type_in_peering_db": "ix", "state": "TX", "port_capacity": 200000, "internet_penetration_percentage": 0.8170000000000001}, {"port_capacity": 1000, "isp_id_in_peering_db": 1929, "city": "Atlanta", "org_name": "EdgeConneX", "state": "GA", "location": [33.729369, -84.420099], "name": "EdgeConneX Atlanta (EDCATL01)", "isp_type_in_peering_db": "fac", "internet_penetration_percentage": 0.847}, {"city": "San Jose", "name": "Equinix San Jose", "isp_type_in_peering_db": "ix", "org_name": "Equinix San Jose", "isp_id_in_peering_db": 5, "location": [37.241767, -121.782967], "state": "CA", "port_capacity": 200000, "internet_penetration_percentage": 0.838}], "prefixes": 7169, "total_prefixes_in_globe": 7995542, "address_space": 48743152, "total_addresses_in_globe": 19498300372, "neighbor": 56, "info_type": "access"}}